name,password,phoneNumber,franchiseName,category,telephoneNumber,address,latitude,longitude,rrnPrefix,rrnCheckDigit,registrationNumber
올페이,Password123!,01000000001,광화문미진,KOREAN,027321954,"서울특별시 종로구 종로 19 1동 비211호 (종로1가, 르메이에르종로타운)",37.57084629,126.9799236,891013,1,0000000001
올페이,Password123!,01000000002,제이제이수산푸드,GENERAL,0200000000,"서울특별시 강서구 화곡로 133 1층 (화곡동, 삼정빌딩)",37.54083225,126.8364905,891013,1,0000000002
올페이,Password123!,01000000003,신세계푸드 이마트본사,GENERAL,0216876792,서울특별시 중구 세종대로7길 37 18층,37.56074886,126.9724896,891013,1,0000000003
올페이,Password123!,01000000004,(1970)추억의수제돈까스,GENERAL,0241111111,서울특별시 광진구 동일로52길 39 1층,37.55402709,127.0733755,891013,1,0000000004
올페이,Password123!,01000000005,(BHC)구산예일,GENERAL,023573517,"서울 은평구 갈현로 141, 1층 BHC (구산동, 씨엔빌)",37.61060412,126.9109713,891013,1,0000000005
올페이,Password123!,01000000006,(BHC)답십리점,GENERAL,0211111111,서울특별시 동대문구 전농로 65-1 1층,37.57082561,127.0570143,891013,1,0000000006
올페이,Password123!,01000000007,(BHC)비에이치씨 남산서울타워점,GENERAL,0237897526,서울특별시 용산구 남산공원길 105 YTN서울타워 1층110호 111호,37.55106957,126.9878711,891013,1,0000000007
올페이,Password123!,01000000008,(C.C) 치킨카페,GENERAL,029713798,서울특별시 노원구 동일로176길 41 1층 제1호,37.62043969,127.0773131,891013,1,0000000008
올페이,Password123!,01000000009,(INBITO)인비또,WESTERN,0211111111,서울특별시 노원구 상계로12길 35 1층 102호(상계동),37.65661867,127.0695128,891013,1,0000000009
올페이,Password123!,01000000010,(LABAB)서울대입구역점,KOREAN,028852919,"서울 관악구 남부순환로 1811, 106 (봉천동, 신원메트로빌)",37.48171366,126.9515023,891013,1,0000000010
올페이,Password123!,01000000011,(NO MONDAY) 노먼데이,GENERAL,0200000000,"서울특별시 은평구 응암로25길 22 제1, 지1층 제101호 전체",37.59555384,126.9159481,891013,1,0000000011
올페이,Password123!,01000000012,(S)급 레시피 은평점,KOREAN,0211111111,"서울특별시 은평구 통일로73길 31-1 ,1층101호",37.61426695,126.9212683,891013,1,0000000012
올페이,Password123!,01000000013,(SOLDOUT BAKERY)솔드아웃베이커리,BAKERY,07000000000,"서울특별시 은평구 연서로26길 15-17 ,제1층 제101호",37.61700275,126.9216477,891013,1,0000000013
올페이,Password123!,01000000014,(THE)더용쓰 샤브샤브&꽃게,GENERAL,029095859,서울 성북구 종암로28길 72-8 (종암동),37.60029485,127.0349694,891013,1,0000000014
올페이,Password123!,01000000015,(THE)마시조아,GENERAL,024447890,서울 광진구 뚝섬로52가길 22-1 (자양동),37.53098297,127.0805665,891013,1,0000000015
올페이,Password123!,01000000016,(계절)키세츠스시,JAPANESE,0200000000,서울특별시 강동구 상암로47길 83 1층(명일동),37.55022511,127.1444351,891013,1,0000000016
올페이,Password123!,01000000017,(고가네)THE 떡볶이,KOREAN,024871442,서울 강동구 천호대로157길 43 (천호동),37.53972576,127.1275533,891013,1,0000000017
올페이,Password123!,01000000018,(구도로)돈순이,KOREAN,0226202228,서울특별시 강서구 화곡로52길 39 1층(회곡동),37.54959983,126.8505327,891013,1,0000000018
올페이,Password123!,01000000019,(노원하계점)하남돼지집,KOREAN,029789232,"서울 노원구 한글비석로1길 51, 1층 (하계동)",37.64003356,127.0704736,891013,1,0000000019
올페이,Password123!,01000000020,(더)두레식당,GENERAL,029284882,서울특별시 성북구 북악산로 1061 1층,37.59265712,127.0357833,891013,1,0000000020
올페이,Password123!,01000000021,(돌통)돌아온 옛날통닭,KOREAN,0236650789,서울특별시 강서구 양천로 691-3 1층,37.55057479,126.8731113,891013,1,0000000021
올페이,Password123!,01000000022,(메차쿠차),WESTERN,024539733,"서울 광진구 구의강변로3길 11, 지하1층 (구의동)",37.53569199,127.0914036,891013,1,0000000022
올페이,Password123!,01000000023,(목우촌)봄이네 삼겹살,KOREAN,024709032,서울 강동구 성안로3길 76 (성내동),37.52727241,127.1257731,891013,1,0000000023
올페이,Password123!,01000000024,부엌바이고메플러스,WESTERN,025970703,서울특별시 서초구 강남대로41길 15-19 지하1층 B011호,37.48642383,127.03213,891013,1,0000000024
올페이,Password123!,01000000025,(숙이네)고기쌈밥,KOREAN,023020594,"서울특별시 은평구 증산로3길 12 , 다동 24호 (증산동, 증산시장)",37.58148214,126.9050727,891013,1,0000000025
올페이,Password123!,01000000026,(신)낙원,CHINESE,0211111111,서울특별시 노원구 동일로208길 34 상가 지하1층 03호,37.6440379,127.0669375,891013,1,0000000026
올페이,Password123!,01000000027,(신)만다린,CHINESE,024044999,서울특별시 송파구 양산로10길 6-1 지하층,37.49243368,127.1449666,891013,1,0000000027
올페이,Password123!,01000000028,(신)종로떡방,OTHER,0226443500,"서울 양천구 목동동로 55, 108호 (신정동, 밀레니엄프라자)",37.51552462,126.8614006,891013,1,0000000028
올페이,Password123!,01000000029,(신스)Since1994오모가리마포용강점,KOREAN,0211111111,서울특별시 마포구 토정로31길 23 121동지하1층112호,37.54164032,126.9417379,891013,1,0000000029
올페이,Password123!,01000000030,(아이엠) I am 찌개,KOREAN,029341000,서울특별시 노원구 상계로24길 18 1층 좌측호,37.65762004,127.07009,891013,1,0000000030
올페이,Password123!,01000000031,(양)동촌,KOREAN,024074081,서울 송파구 새말로 169 (문정동),37.48558405,127.1315279,891013,1,0000000031
올페이,Password123!,01000000032,(와이낫)Y.not,WESTERN,0263260233,"서울특별시 관악구 신사로 112 ,1층(신림동)",37.48766407,126.9147142,891013,1,0000000032
올페이,Password123!,01000000033,(월순)철판동태찜,KOREAN,023251567,"서울 서대문구 연희맛로 17-14, 1층 (연희동)",37.5672186,126.9290506,891013,1,0000000033
올페이,Password123!,01000000034,아웃백스테이크하우스코리아,WESTERN,027495101,"서울 용산구 이태원로 172, 4층 (이태원동)",37.53421528,126.9929383,891013,1,0000000034
올페이,Password123!,01000000035,아웃백스테이크하우스코리아 사당파스텔시티점,WESTERN,0230197000,"서울 서초구 방배천로 11, 4층 (방배동, SK리더스뷰)",37.47769674,126.982231,891013,1,0000000035
올페이,Password123!,01000000036,오반에프에스,KOREAN,0236655333,서울 강서구 공항대로 353 (등촌동),37.55796528,126.8470498,891013,1,0000000036
올페이,Password123!,01000000037,한국맥도날드 구의역점,FASTFOOD,0262122700,서울특별시 광진구 아차산로 376 자양동,37.53643187,127.0844868,891013,1,0000000037
올페이,Password123!,01000000038,한국맥도날드 신림점,FASTFOOD,0200000000,"서울특별시 관악구 신림로 310 1, 2층",37.48190924,126.9301987,891013,1,0000000038
올페이,Password123!,01000000039,한국맥도날드 안암점,FASTFOOD,07070170367,서울특별시 성북구 고려대로24길 42 안암동5가,37.58441927,127.0292641,891013,1,0000000039
올페이,Password123!,01000000040,한국맥도날드 양평에스케이점,FASTFOOD,07070176505,서울특별시 영등포구 선유로 195 양평동3가,37.53106535,126.893519,891013,1,0000000040
올페이,Password123!,01000000041,한국맥도날드 이태원점,FASTFOOD,07070170305,서울특별시 용산구 이태원로 142-1 이태원동,37.53392714,126.9896964,891013,1,0000000041
올페이,Password123!,01000000042,한국맥도날드 이태원점,FASTFOOD,07070170305,서울특별시 용산구 이태원로 142-1 이태원동,37.53392714,126.9896964,891013,1,0000000042
올페이,Password123!,01000000043,한국맥도날드 전농점,FASTFOOD,07070170548,서울특별시 동대문구 전농로16길 8 전농동,37.57828469,127.0577863,891013,1,0000000043
올페이,Password123!,01000000044,한국맥도날드 전농점,FASTFOOD,07070170548,서울특별시 동대문구 전농로16길 8 전농동,37.57828469,127.0577863,891013,1,0000000044
올페이,Password123!,01000000045,한국맥도날드구의역점,FASTFOOD,07070170439,서울특별시 광진구 아차산로 376 자양동,37.53643187,127.0844868,891013,1,0000000045
올페이,Password123!,01000000046,한국맥도날드구의역점,FASTFOOD,07070170439,서울특별시 광진구 아차산로 376 자양동,37.53643187,127.0844868,891013,1,0000000046
올페이,Password123!,01000000047,아웃백스테이크하우스 건대스타시티점,WESTERN,0222183021,"서울 광진구 능동로 92, 스타시티몰 2층 201호 202호 (자양동, 롯데백화점)",37.53899973,127.0712144,891013,1,0000000047
올페이,Password123!,01000000048,아웃백스테이크하우스 명동점,WESTERN,027786731,"서울 중구 명동3길 36, 3층 (을지로2가)",37.56534688,126.9837357,891013,1,0000000048
올페이,Password123!,01000000049,아웃백스테이크하우스 상봉홈플러스점,WESTERN,0269882252,"서울 중랑구 망우로 353, 지하1층 (상봉동, 상봉프레미어스엠코)",37.59795123,127.0900909,891013,1,0000000049
올페이,Password123!,01000000050,아웃백스테이크하우스 양재점,GENERAL,025648601,서울특별시 서초구 남부순환로 2567 2층,37.48461881,127.0312997,891013,1,0000000050
올페이,Password123!,01000000051,아웃백스테이크하우스 왕십리역사점,WESTERN,0222929131,"서울특별시 성동구 왕십리광장로 17 본동2층(행당동,왕십리민자역사)",37.56146769,127.0383445,891013,1,0000000051
올페이,Password123!,01000000052,아웃백스테이크하우스 청량리역사점,WESTERN,0232954842,서울특별시 동대문구 왕산로 214 4층 404호,37.5777573,127.0453439,891013,1,0000000052
올페이,Password123!,01000000053,아웃백스테이크하우스 코엑스스타필드점,WESTERN,025584491,"서울 강남구 영동대로 513 , 지하1층 H123호 스타필드 코엑스몰 (삼성동)",37.51201831,127.059037,891013,1,0000000053
올페이,Password123!,01000000054,아웃백스테이크하우스 합정점,WESTERN,023388591,"서울 마포구 월드컵로3길 14 , 1층 110호-113호 (합정동)",37.55103589,126.9123437,891013,1,0000000054
올페이,Password123!,01000000055,아웃백스테이크하우스코리아,WESTERN,0220548300,"서울 강남구 강남대로 298, 6층 (역삼동, 푸르덴셜타워)",37.49006153,127.0321679,891013,1,0000000055
올페이,Password123!,01000000056,아웃백스테이크하우스코리아 가산점,WESTERN,028530461,"서울 금천구 디지털로10길 9, 7층 하이힐 (가산동)",37.47762226,126.8890639,891013,1,0000000056
올페이,Password123!,01000000057,아웃백스테이크하우스코리아 동대문점,WESTERN,0222832902,"서울 중구 장충단로13길 20 , 9층 (을지로6가)",37.56870764,127.0076531,891013,1,0000000057
올페이,Password123!,01000000058,아웃백스테이크하우스코리아 용산아이파크몰점,WESTERN,0220120751,"서울 용산구 한강대로23길 55, 7층 (한강로3가, 용산역)",37.52983923,126.964861,891013,1,0000000058
올페이,Password123!,01000000059,아웃백스테이크하우스코리아 천호현대점,WESTERN,0222258965,"서울 강동구 천호대로 1005, 11층 (천호동, 현대백화점)",37.53898763,127.1244491,891013,1,0000000059
올페이,Password123!,01000000060,아웃백스테이크하우스코리아강남점,WESTERN,025154791,"서울 강남구 강남대로 502, 2층 (논현동, 서희빌딩)",37.50713253,127.0236764,891013,1,0000000060
올페이,Password123!,01000000061,아웃백스테이크하우스코리아공항점,WESTERN,0236611101,"서울 강서구 마곡중앙6로 16, 3층 301호 (마곡동, 마곡지엠지타워)",37.56041775,126.8290945,891013,1,0000000061
올페이,Password123!,01000000062,아웃백스테이크하우스코리아교대점,WESTERN,0230197000,"서울 서초구 서초대로 338, 지하1층 (서초동)",37.49485546,127.0186166,891013,1,0000000062
올페이,Password123!,01000000063,아웃백스테이크하우스코리아남영점,GENERAL,0230197000,서울 용산구 한강대로 270 (남영동),37.54244363,126.9732181,891013,1,0000000063
올페이,Password123!,01000000064,아웃백스테이크하우스코리아도곡점,WESTERN,0230197000,서울 강남구 남부순환로 2909 (대치동),37.49218087,127.0574108,891013,1,0000000064
올페이,Password123!,01000000065,아웃백스테이크하우스코리아독산점,GENERAL,0230197000,서울 금천구 시흥대로 399 (독산동),37.46940587,126.896869,891013,1,0000000065
올페이,Password123!,01000000066,아웃백스테이크하우스코리아메트로,WESTERN,0230197000,"서울 중구 명동9가길 14 (을지로2가, 메트로호텔)",37.56516852,126.9837303,891013,1,0000000066
올페이,Password123!,01000000067,아웃백스테이크하우스코리아명동중앙점,WESTERN,027790211,서울 중구 명동길 60 (명동2가),37.56377534,126.9857837,891013,1,0000000067
올페이,Password123!,01000000068,아웃백스테이크하우스코리아목동점,WESTERN,0226495315,서울 양천구 등촌로 12 (목동),37.53112965,126.8641645,891013,1,0000000068
올페이,Password123!,01000000069,아웃백스테이크하우스코리아미아점,WESTERN,0230197142,"서울 강북구 도봉로 62, 롯데백화점미아점 9층 (미아동)",37.61459052,127.0305147,891013,1,0000000069
올페이,Password123!,01000000070,아웃백스테이크하우스코리아센트럴,WESTERN,0230197000,"서울 서초구 신반포로 176 , 센트럴시티빌딩 중층 FPM-2호 (반포동)",37.50428126,127.0045667,891013,1,0000000070
올페이,Password123!,01000000071,아웃백스테이크하우스코리아수유점,WESTERN,0230197000,서울 강북구 도봉로 321 (수유동),37.63693828,127.024098,891013,1,0000000071
올페이,Password123!,01000000072,아웃백스테이크하우스코리아영등포,WESTERN,0230197000,"서울 영등포구 영등포로 216, 8호 (영등포동3가)",37.51962774,126.905366,891013,1,0000000072
올페이,Password123!,01000000073,아웃백스테이크하우스코리아이대점,WESTERN,0230197000,"서울 서대문구 신촌로 121, 4254 82 (창천동)",37.55621083,126.9393094,891013,1,0000000073
올페이,Password123!,01000000074,아웃백스테이크하우스코리아장안점,WESTERN,0222490461,"서울 동대문구 장한로 105 201(장안동,장안뉴시티201호~205호)",37.57008597,127.0699706,891013,1,0000000074
올페이,Password123!,01000000075,아웃백스테이크하우스코리아중계점,WESTERN,029398371,서울 노원구 한글비석로 270 (중계동),37.6515748,127.0774025,891013,1,0000000075
올페이,Password123!,01000000076,아웃백스테이크하우스코리아충무로,WESTERN,023194071,"서울 중구 삼일대로 299, 1층 111 (충무로2가, 성창빌딩)",37.56154657,126.9884874,891013,1,0000000076
올페이,Password123!,01000000077,아웃백스테이크하우스타임스퀘어점,WESTERN,0220693821,"서울 영등포구 영중로 15, 지하2층 (영등포동4가, 타임스퀘어)",37.51719571,126.9036461,891013,1,0000000077
올페이,Password123!,01000000078,아이러브떡볶이,KOREAN,0222327872,"서울 중구 퇴계로76길 50, 1층 1-7 (신당동, 성완빌딩)",37.56314169,127.0147253,891013,1,0000000078
올페이,Password123!,01000000079,울프강스테이크하우스코리아,GENERAL,025568700,"서울 강남구 선릉로152길 21, 1층 (청담동, 영인빌딩)",37.52449143,127.0414636,891013,1,0000000079
올페이,Password123!,01000000080,(은평점)은평어시장&포장전문점,GENERAL,023040284,서울특별시 은평구 응암로 169 1층,37.58715781,126.9162054,891013,1,0000000080
올페이,Password123!,01000000081,(재)케이티그룹희망나눔재단,GENERAL,0234120847,서울특별시 강남구 광평로47길 28 6층,37.48848576,127.0988067,891013,1,0000000081
올페이,Password123!,01000000082,(재)케이티그룹희망나눔재단,GENERAL,0232804561,서울특별시 강남구 광평로47길 28 KT 6층,37.48848576,127.0988067,891013,1,0000000082
올페이,Password123!,01000000083,(재)케이티그룹희망나눔재단 송파,GENERAL,0232761426,서울특별시 송파구 잠실로 209 KT송파타워 지하1층,37.51383209,127.1061304,891013,1,0000000083
올페이,Password123!,01000000084,(재)케이티그룹희망나눔재단 송파,GENERAL,0232761426,서울특별시 송파구 잠실로 209 KT송파타워 8층,37.51383209,127.1061304,891013,1,0000000084
올페이,Password123!,01000000085,(재)케이티그룹희망나눔재단 송파,GENERAL,021111111,"서울특별시 송파구 잠실로 209 8층, 지하1층",37.51383209,127.1061304,891013,1,0000000085
올페이,Password123!,01000000086,(제주)돈꼭집,GENERAL,07048333317,서울특별시 은평구 진흥로 143 1층,37.60851631,126.9255895,891013,1,0000000086
올페이,Password123!,01000000087,케이제이에이치푸드,KOREAN,025827778,"서울특별시 서초구 서초중앙로 26 102호,202호",37.48466644,127.0170062,891013,1,0000000087
올페이,Password123!,01000000088,가온지에스,KOREAN,07041410700,"서울 송파구 백제고분로7길 49, 1층 101호 (잠실동)",37.51094854,127.0843368,891013,1,0000000088
올페이,Password123!,01000000089,갑부,GENERAL,024125577,서울특별시 송파구 가락로 110 2층,37.50125131,127.108231,891013,1,0000000089
올페이,Password123!,01000000090,갤러리에이트,WESTERN,0234458004,"서울 강남구 논현로152길 21, 1층 (신사동)",37.52137805,127.0298059,891013,1,0000000090
올페이,Password123!,01000000091,건축집단마,WESTERN,023338271,서울 마포구 토정로14길 9 (구수동),37.54493639,126.9326761,891013,1,0000000091
올페이,Password123!,01000000092,고르드,GENERAL,023659567,서울 서대문구 연세로 32 (창천동),37.55843094,126.9371325,891013,1,0000000092
올페이,Password123!,01000000093,고메서울 (카미소리),JAPANESE,027499640,서울특별시 용산구 한남대로21길 33 2층,37.53336171,127.0065885,891013,1,0000000093
올페이,Password123!,01000000094,광민동아 동아냉면,KOREAN,027967442,서울 용산구 대사관로 45-1 (한남동),37.53372887,127.0032677,891013,1,0000000094
올페이,Password123!,01000000095,기야마,BAKERY,027379360,서울 동대문구 한빛로 28 (신설동),37.57786467,127.0259401,891013,1,0000000095
올페이,Password123!,01000000096,김앤김대게 공덕점,KOREAN,027073390,서울특별시 마포구 마포대로 109 롯데캐슬프레지던트 제지2충,37.54506865,126.9508475,891013,1,0000000096
올페이,Password123!,01000000097,늘솜,GENERAL,027787718,"서울 중구 세종대로 136, 지하1층 (태평로1가, 파이낸스빌딩)",37.568415,126.978284,891013,1,0000000097
올페이,Password123!,01000000098,늘솜 생어거스킨 타임스퀘어점,WESTERN,0226362018,"서울 영등포구 영중로 15, 4층 409 (영등포동4가, 타임스퀘어)",37.51719571,126.9036461,891013,1,0000000098
올페이,Password123!,01000000099,다이닝원 명동,JAPANESE,027531230,"서울 중구 명동길 55, 4층 (명동1가)",37.56414837,126.98538,891013,1,0000000099
올페이,Password123!,01000000100,대영케이씨비에스 죠샌드위치 반포점,GENERAL,025334433,"서울 서초구 서초중앙로 217 (반포동, 대동빌딩)",37.50103554,127.0116369,891013,1,0000000100
올페이,Password123!,01000000101,더본인터내셔널,KOREAN,027303700,"서울 종로구 사직로8길 4, 301동 208호 광화문풍림스페이스본 (사직동, 광화문풍림스페이스본)",37.57467404,126.9698519,891013,1,0000000101
올페이,Password123!,01000000102,더헤븐,GENERAL,025494488,"서울 강남구 선릉로 703, 13층 (논현동, 에이치앤에스타워)",37.51769357,127.0407534,891013,1,0000000102
올페이,Password123!,01000000103,데이비드푸드 등나무시즌2,KOREAN,025404344,"서울 강남구 논현로152길 9, 203호 (신사동)",37.52109923,127.0289369,891013,1,0000000103
올페이,Password123!,01000000104,도시의어부,KOREAN,023040123,서울 마포구 월드컵북로44길 39 (상암동),37.57649059,126.8950208,891013,1,0000000104
올페이,Password123!,01000000105,동빙고 이촌,GENERAL,027947171,"서울 용산구 이촌로 319, 현대상가 101 (이촌동, 현대아파트)",37.51796526,126.9823282,891013,1,0000000105
올페이,Password123!,01000000106,디엔에이벤처스제오호,GENERAL,0211111111,서울특별시 강남구 가로수길 77 1층,37.52302334,127.022313,891013,1,0000000106
올페이,Password123!,01000000107,뚜리삼,KOREAN,027782959,"서울 중구 청계천로 8, 지하층 1층 프리미어플레이스 (무교동)",37.56885991,126.978212,891013,1,0000000107
올페이,Password123!,01000000108,레드캡 교대점,FASTFOOD,025950350,"서울 서초구 사임당로 85, 102호 (서초동)",37.4898391,127.0189961,891013,1,0000000108
올페이,Password123!,01000000109,레디투스세븐,KOREAN,0200000000,서울특별시 강남구 압구정로11길 37-53 1층,37.52904479,127.0192622,891013,1,0000000109
올페이,Password123!,01000000110,로코스 인터내셔널,WESTERN,0260913234,"서울 용산구 회나무로 83, 지층 (이태원동)",37.54098309,126.9955403,891013,1,0000000110
올페이,Password123!,01000000111,롯데리아 종로3가점,FASTFOOD,0222610735,"서울 종로구 종로 120, 외 3필지 (종로3가)",37.57005815,126.9909231,891013,1,0000000111
올페이,Password123!,01000000112,롯데리아 크리스피크림 수서역사점,BAKERY,027091058,서울 강남구 밤고개로 99,37.48540268,127.1045819,891013,1,0000000112
올페이,Password123!,01000000113,롯데리아 크리스피크림 홍제역점,BAKERY,027091053,"서울 서대문구 통일로 464 (홍제동, 홍제빌딩)",37.58995307,126.9432277,891013,1,0000000113
올페이,Password123!,01000000114,롯데리아보네스뻬브레드월드스포,FASTFOOD,0221431041,"서울 송파구 올림픽로 240, 롯데월드스포츠동 1층 S-102호 (잠실동)",37.5114818,127.0982241,891013,1,0000000114
올페이,Password123!,01000000115,마리진 알로하테이블 파르나스,GENERAL,0234539514,"서울 강남구 테헤란로 521, 파르나스몰 지하1층 F-17 (삼성동, 그랜드인터컨티넨탈서울)",37.50917448,127.0606252,891013,1,0000000115
올페이,Password123!,01000000116,마포감자국,KOREAN,029031132,"서울특별시 강북구 한천로 1158 , 1층(수유동)",37.6473974,127.016826,891013,1,0000000116
올페이,Password123!,01000000117,만포막국수,KOREAN,0222351357,"서울 중구 동호로14길 2, 1층 (신당동)",37.55581451,127.0102919,891013,1,0000000117
올페이,Password123!,01000000118,맛사랑,KOREAN,024184500,서울 송파구 석촌호수로 61  트리지움상가102호,37.510698,127.0862117,891013,1,0000000118
올페이,Password123!,01000000119,메이더 (제임스시카고피자2호점),GENERAL,07046321782,"서울 마포구 잔다리로6길 36, 1층 (서교동, 동천빌딩)",37.55225046,126.9212195,891013,1,0000000119
올페이,Password123!,01000000120,멜팅스톤,WESTERN,024663094,서울특별시 성동구 뚝섬로17가길 55 1층(성수동2가),37.54109497,127.059192,891013,1,0000000120
올페이,Password123!,01000000121,모닝테이블,GENERAL,025530724,"서울 강남구 언주로 305, 102호 백안빌딩 (역삼동)",37.49477975,127.0460848,891013,1,0000000121
올페이,Password123!,01000000122,몰리노프로젝트,WESTERN,0211111111,서울특별시 성동구 서울숲2길 19-18 1층,37.54743455,127.041168,891013,1,0000000122
올페이,Password123!,01000000123,문앤선리,BAKERY,023248203,"서울 마포구 홍익로 3, 지상 1층 (서교동)",37.55294745,126.9239037,891013,1,0000000123
올페이,Password123!,01000000124,미셸푸드 서울성모식당,GENERAL,0221427737,"서울 서초구 반포대로 222, 1층 (반포동, 강남성모병원의과대학)",37.50038692,127.0055388,891013,1,0000000124
올페이,Password123!,01000000125,미즈컨테이너,WESTERN,025365786,서울 서초구 서초대로73길 9 주 미즈컨테이너 (서초동),37.49830822,127.0252278,891013,1,0000000125
올페이,Password123!,01000000126,배강,FASTFOOD,07089509440,서울특별시 마포구 와우산로 73 101 102 (서교동),37.5510015,126.9229975,891013,1,0000000126
올페이,Password123!,01000000127,백년토종,KOREAN,023253399,"서울 강서구 하늘길 38, 2층 101호 (방화동)",37.57179309,126.8003709,891013,1,0000000127
올페이,Password123!,01000000128,베이커스필드,BAKERY,025663310,"서울 강남구 테헤란로25길 46, 4층 (역삼동)",37.50349518,127.03485,891013,1,0000000128
올페이,Password123!,01000000129,베토벤하우제,GENERAL,024431232,"서울 송파구 오금로36길 4-13, 1-1 (가락동)",37.50333364,127.1250801,891013,1,0000000129
올페이,Password123!,01000000130,별동부대 분짜라붐 광화문점,KOREAN,027221508,서울특별시 종로구 새문안로 87 1층,37.57037439,126.974292,891013,1,0000000130
올페이,Password123!,01000000131,별동부대 분짜라붐 이태원점,KOREAN,027494993,"서울특별시 용산구 이태원로 247 (738-25 지상 1,2층)",37.53691951,127.0002583,891013,1,0000000131
올페이,Password123!,01000000132,보따리,KOREAN,025797282,서울 서초구 논현로 27 (양재동),37.47325501,127.0486806,891013,1,0000000132
올페이,Password123!,01000000133,봉추푸드시스템 광화문점,KOREAN,027376981,"서울 종로구 종로1길 50, B동 지하1층 16호 (중학동, 더케이트윈타워)",37.57477917,126.9790503,891013,1,0000000133
올페이,Password123!,01000000134,부산갈매기,KOREAN,027185462,"서울 마포구 도화길 48-3, 1층 (도화동)",37.54174926,126.951016,891013,1,0000000134
올페이,Password123!,01000000135,비엔에스푸드 보돌미역 종로점,GENERAL,027251391,서울특별시 종로구 종로 51 종로타워 지하1층 B101호(종로2가),37.5707427,126.9836089,891013,1,0000000135
올페이,Password123!,01000000136,비움과채움 바오차이,CHINESE,0260310107,"서울 중구 을지로 100, B동 지하1층 B808호 파인에비뉴 (을지로2가)",37.56564868,126.9881425,891013,1,0000000136
올페이,Password123!,01000000137,비케이알 - BKR버거킹문정점,FASTFOOD,024310332,서울 송파구 송이로 239 (문정동),37.4880453,127.1317283,891013,1,0000000137
올페이,Password123!,01000000138,비케이알 버거킹 고대중앙광장점,FASTFOOD,029280330,"서울 성북구 안암로 145, 고려대중앙광장내 지하1층 (안암동5가)",37.59084261,127.0341422,891013,1,0000000138
올페이,Password123!,01000000139,사옹원 튀김공방,KOREAN,07088903091,서울특별시 서초구 강남대로 27 지하1층 지하B1-21호,37.4657309,127.0404564,891013,1,0000000139
올페이,Password123!,01000000140,삼송비엔씨,BAKERY,0535563030,"서울 마포구 월드컵로1길 14 , 딜라이트스퀘어1지구 지하2층 B217~B218 (합정동, 마포한강푸르지오)",37.5500308,126.912022,891013,1,0000000140
올페이,Password123!,01000000141,삿포로 참치,JAPANESE,024161479,"서울 송파구 올림픽로32길 32, 1층 1호 2 2호 (방이동, 유인빌딩)",37.51319186,127.1096408,891013,1,0000000141
올페이,Password123!,01000000142,서부감자국,KOREAN,023564555,서울 은평구 서오릉로 8 (녹번동),37.60224508,126.9269387,891013,1,0000000142
올페이,Password123!,01000000143,서청미역서초점,KOREAN,025880068,"서울특별시 서초구 서초대로40길 41 1층 101, 102호 (서초동)",37.48983729,127.008013,891013,1,0000000143
올페이,Password123!,01000000144,세운에프에스 도미노피자고대점,GENERAL,029639451,"서울 동대문구 안암로 82, 1층 (제기동, 세운빌딩)",37.58319174,127.0302878,891013,1,0000000144
올페이,Password123!,01000000145,소노인터내셔널 문정지점,KOREAN,0215884888,"서울 송파구 법원로 127, 지하1층 (문정동)",37.48631625,127.1187833,891013,1,0000000145
올페이,Password123!,01000000146,수향푸드,KOREAN,0211111111,서울특별시 강남구 봉은사로30길 73 지상2층 4호,37.50294426,127.0371255,891013,1,0000000146
올페이,Password123!,01000000147,스마트푸드(최원석의돼지한판&쭈꾸미),KOREAN,024474544,서울 광진구 아차산로 478 (구의동),37.54031781,127.0950338,891013,1,0000000147
올페이,Password123!,01000000148,스시로한국 타임스퀘어점,JAPANESE,0226333015,"서울특별시 영등포구 영중로 15 (영등포동4가, 타임스퀘어 지하 1층)",37.51719571,126.9036461,891013,1,0000000148
올페이,Password123!,01000000149,스타럭스 파르나스몰점,BAKERY,0234533803,"서울 강남구 테헤란로 521, 지하1층 (삼성동, 그랜드인터컨티넨탈서울)",37.50917448,127.0606252,891013,1,0000000149
올페이,Password123!,01000000150,스테프코리아 하이웨이주유소점,GENERAL,028311071,"서울특별시 강서구 공항대로 432 ,1층",37.55473641,126.8548109,891013,1,0000000150
올페이,Password123!,01000000151,시조명동진성닭칼국수,KOREAN,0222753125,서울특별시 종로구 종로40가길 10 1층,37.57038617,127.0061136,891013,1,0000000151
올페이,Password123!,01000000152,신세계푸드 노브랜드버거 코엑스점,KOREAN,0233976076,서울특별시 강남구 영동대로 513 (삼성동),37.51201831,127.059037,891013,1,0000000152
올페이,Password123!,01000000153,신세계푸드 데블스도어 코,GENERAL,0233976076,서울특별시 강남구 영동대로 513 (삼성동),37.51201831,127.059037,891013,1,0000000153
올페이,Password123!,01000000154,신세계푸드 부방,GENERAL,0233976076,서울특별시 강남구 삼성로 530 부방빌딩,37.50938434,127.055645,891013,1,0000000154
올페이,Password123!,01000000155,신세계푸드 온기스퀘어,GENERAL,0216885795,서울특별시 종로구 인사동7길 32 지하1층,37.57307403,126.9843204,891013,1,0000000155
올페이,Password123!,01000000156,씨엘그룹,FASTFOOD,07070171429,"서울 동작구 사당로 300, 1층 (사당동, 이수자이아파트)",37.48437944,126.9802816,891013,1,0000000156
올페이,Password123!,01000000157,씨푸드락,KOREAN,024190405,"서울 송파구 법원로11길 25, A동 204호 205호 (문정동)",37.48514121,127.1169494,891013,1,0000000157
올페이,Password123!,01000000158,아람스제이 요리하는 남자,WESTERN,024191511,서울특별시 송파구 백제고분로7길 27 지하1층,37.51088471,127.0818672,891013,1,0000000158
올페이,Password123!,01000000159,아모제 카페아모제신촌세브란스,WESTERN,0222277768,"서울 서대문구 연세로 50, 세브란스병원본관지상 3층 (신촌동)",37.56202638,126.9412203,891013,1,0000000159
올페이,Password123!,01000000160,아워홈 보라매병원동작점,GENERAL,0269669274,서울특별시 동작구 보라매로5길 20 지하1층,37.49402751,126.9241933,891013,1,0000000160
올페이,Password123!,01000000161,아워홈 연세사랑모아여성병원점,GENERAL,0200000000,서울특별시 구로구 중앙로 100 8층,37.50635972,126.8606114,891013,1,0000000161
올페이,Password123!,01000000162,아워홈 타임스퀘어영등포점,KOREAN,0211111111,"서울특별시 영등포구 영중로 15 지하2층(영등포동4가, 타임스퀘어)",37.51719571,126.9036461,891013,1,0000000162
올페이,Password123!,01000000163,안동장,CHINESE,028130572,서울 동작구 흑석로 105-1 (흑석동),37.50819128,126.9609847,891013,1,0000000163
올페이,Password123!,01000000164,알볼로에프앤씨 피자알볼로목동본점,FASTFOOD,0226423024,"서울 양천구 은행정로4길 16, A동 1층 (신정동)",37.52106118,126.8617067,891013,1,0000000164
올페이,Password123!,01000000165,알트윈푸드,JAPANESE,0221587966,"서울 종로구 종로 33, 지하1층 B112호 (청진동)",37.57101418,126.9814357,891013,1,0000000165
올페이,Password123!,01000000166,알트윈푸드 다쯔미 종로점,JAPANESE,0221587966,서울 종로구 종로 지하 33  지하1층 b112호,35.540282,128.4996646,891013,1,0000000166
올페이,Password123!,01000000167,알페트라,GENERAL,027904433,"서울 용산구 녹사평대로40길 33, 2층 (이태원동)",37.5346567,126.9877224,891013,1,0000000167
올페이,Password123!,01000000168,야마야푸즈서비스 야마야 신문로점,JAPANESE,027208002,"서울 종로구 새문안로3길 12, 1층 (신문로1가, 신문로맨션)",37.57131891,126.9729444,891013,1,0000000168
올페이,Password123!,01000000169,야마야푸즈서비스 야마야페럼타워점,JAPANESE,0263538946,"서울 중구 을지로5길 19, 1층 (수하동)",37.56697892,126.9842095,891013,1,0000000169
올페이,Password123!,01000000170,양지이엠알,KOREAN,027107732,"서울 용산구 한강대로21나길 40, 40동 712호 (한강로3가)",37.528267,126.9642059,891013,1,0000000170
올페이,Password123!,01000000171,어반플레이(스몰글라스 오브제),WESTERN,0231417977,서울특별시 강남구 역삼로 172 1층(역삼동),37.49515685,127.0381868,891013,1,0000000171
올페이,Password123!,01000000172,언주옥,KOREAN,0220688679,"서울특별시 영등포구 영중로 15 , B1층 149호 (영등포동4가, 타임스퀘어)",37.51719571,126.9036461,891013,1,0000000172
올페이,Password123!,01000000173,에스에프이노베이션,KOREAN,025451508,서울 강남구 논현로159길 18 (신사동),37.52314955,127.026613,891013,1,0000000173
올페이,Password123!,01000000174,에스에프이노베이션 논현지점,KOREAN,025172973,"서울 강남구 봉은사로25길 18, 지하1층 (논현동)",37.50828825,127.0322862,891013,1,0000000174
올페이,Password123!,01000000175,에스에프이노베이션 스쿨푸,KOREAN,0226441508,서울특별시 양천구 목동중앙서로 41-1 1층,37.53327087,126.8685672,891013,1,0000000175
올페이,Password123!,01000000176,여가 채선당플러스 원효로점,KOREAN,0263627977,서울특별시 용산구 원효로90길 11 2층 203호,37.54040002,126.9697321,891013,1,0000000176
올페이,Password123!,01000000177,여의도해우리,KOREAN,0269292066,서울특별시 영등포구 국제금융로2길 32 지하1층,37.52388021,126.9241264,891013,1,0000000177
올페이,Password123!,01000000178,옛날쌀국수,GENERAL,0211111111,"서울특별시 서대문구 연세로4길 45 1층, 2층",37.55814902,126.9389763,891013,1,0000000178
올페이,Password123!,01000000179,오금버드나무집,KOREAN,024088000,서울 송파구 동남로 309 (오금동),37.50306078,127.1375697,891013,1,0000000179
올페이,Password123!,01000000180,오설록티하우스 홍대점,GENERAL,023235223,서울 마포구 어울마당로 88  2층.3층.4층,37.55284277,126.9218969,891013,1,0000000180
올페이,Password123!,01000000181,오앤에스솔루션스 써브웨이 가락시장점,GENERAL,0211111111,서울특별시 송파구 중대로 109 1층 102호,37.49383399,127.1204772,891013,1,0000000181
올페이,Password123!,01000000182,우밀가,KOREAN,025571855,"서울 강남구 선릉로93길 26, 2층 (역삼동, 우리빌딩)",37.50483182,127.0464514,891013,1,0000000182
올페이,Password123!,01000000183,우스마니아인터내셔날레스토랑,GENERAL,027987155,"서울 용산구 우사단로 34, 지하층 (이태원동)",37.53322736,126.995691,891013,1,0000000183
올페이,Password123!,01000000184,우이락 망원본점,KOREAN,07011111111,서울특별시 마포구 포은로8길 22 1층 1~2호 및 옥외점포1칸 (망원동),37.55643926,126.9059869,891013,1,0000000184
올페이,Password123!,01000000185,원앤온니 에이엠씨,GENERAL,023343111,서울 마포구 월드컵북로 31 (서교동),37.55713202,126.9187016,891013,1,0000000185
올페이,Password123!,01000000186,웰스프레쉬-은평우체국점,KOREAN,0317483600,"서울특별시 은평구 진관2로 29-8 (진관동, 서울은평우체국)",37.63539351,126.9205988,891013,1,0000000186
올페이,Password123!,01000000187,이씨엠디 한국지역정보개발원,KOREAN,0234007614,"서울 마포구 성암로 301, 4층 (상암동)",37.58242877,126.8879329,891013,1,0000000187
올페이,Password123!,01000000188,일미리 금계찜닭,KOREAN,0319326951,"서울 강남구 선릉로93길 22, 2층 1호 (역삼동, 대흥빌딩)",37.50497309,127.0467152,891013,1,0000000188
올페이,Password123!,01000000189,일상에프앤비,WESTERN,0234785078,서울특별시 서초구 서래로5길 30 지하1층,37.49800234,126.9964944,891013,1,0000000189
올페이,Password123!,01000000190,자유회관,KOREAN,0222545600,"서울 중구 장충단로 72, 1층 2층 (장충동2가)",37.55259355,127.0030738,891013,1,0000000190
올페이,Password123!,01000000191,장블랑제리 이수역 직영점,BAKERY,0269495170,서울특별시 동작구 동작대로23길 8 사당동,37.48437603,126.9813258,891013,1,0000000191
올페이,Password123!,01000000192,쟈니덤플링,CHINESE,027908830,"서울 용산구 보광로59길 5, 2층 3층 (이태원동)",37.53388788,126.993723,891013,1,0000000192
올페이,Password123!,01000000193,정정당당,GENERAL,0226988592,"서울 강서구 화곡로 109, 지상 1,2층 (화곡동)",37.54027884,126.833873,891013,1,0000000193
올페이,Password123!,01000000194,정정당당,GENERAL,0233948870,서울 동대문구 천호대로 395-2 (장안동),37.56203691,127.0631423,891013,1,0000000194
올페이,Password123!,01000000195,정정당당,GENERAL,0226798592,서울 영등포구 영등포로35길 10 (영등포동6가),37.52081507,126.9042778,891013,1,0000000195
올페이,Password123!,01000000196,정정당당,GENERAL,028668592,"서울 관악구 남부순환로 1453, 지상 2,4층 (신림동)",37.48172496,126.912186,891013,1,0000000196
올페이,Password123!,01000000197,정정당당 (마포점),KOREAN,027010455,서울 마포구 토정로 304 (용강동),37.5402575,126.9426879,891013,1,0000000197
올페이,Password123!,01000000198,제이에스비,GENERAL,025217749,"서울 서초구 서초중앙로 15, 상가 104 (서초동, 현대슈퍼빌)",37.48355002,127.0166443,891013,1,0000000198
올페이,Password123!,01000000199,제이엘푸드 부산아지매국밥 차병원사,KOREAN,025013078,"서울 강남구 봉은사로 177, 1층 (논현동)",37.50737078,127.033188,891013,1,0000000199
올페이,Password123!,01000000200,죠티인도레스토랑,WESTERN,027033535,"서울 마포구 신촌로20길 6, 3층 (노고산동)",37.55495522,126.9379732,891013,1,0000000200
올페이,Password123!,01000000201,진미서산게장,KOREAN,0232114468,"서울 마포구 마포대로 186-6, 1층 (공덕동)",37.55060776,126.9558023,891013,1,0000000201
올페이,Password123!,01000000202,진주네푸드시스템,GENERAL,0200000000,서울특별시 종로구 동호로 403 1층,37.57046739,127.0016879,891013,1,0000000202
올페이,Password123!,01000000203,참새초밥 홍대점,JAPANESE,07030173898,서울특별시 마포구 와우산로14길 4 삼송빌딩 1층,37.55006888,126.923369,891013,1,0000000203
올페이,Password123!,01000000204,추억더하기,KOREAN,0211111111,서울특별시 종로구 삼일대로 428 4층 매점(낙원동),37.57274781,126.9880526,891013,1,0000000204
올페이,Password123!,01000000205,카덴,JAPANESE,0231426362,"서울 서대문구 연희로 173, 2층 (연희동, 거화빌딩)",37.57243306,126.9350457,891013,1,0000000205
올페이,Password123!,01000000206,캘리스코 사보텐 건대스타시티점,WESTERN,07075120267,"서울 광진구 아차산로 262, 스타시티 지하1층 더샵스타시티 (자양동)",37.53809441,127.0722702,891013,1,0000000206
올페이,Password123!,01000000207,캘리스코 사보텐 코엑스점,WESTERN,07075120267,"서울 강남구 영동대로 513, 기존컨벤션센터 지하1층 D110호 (삼성동, 코엑스)",37.51201831,127.059037,891013,1,0000000207
올페이,Password123!,01000000208,캘리스코 타코벨 신촌점,FASTFOOD,0269669472,서울 서대문구 연세로 26-1 (창천동),37.55799467,126.937119,891013,1,0000000208
올페이,Password123!,01000000209,캘리스코 타코벨 여의도메리츠점,GENERAL,0269669472,"서울 영등포구 국제금융로2길 11, 1층 (여의도동)",37.52416894,126.926428,891013,1,0000000209
올페이,Password123!,01000000210,캘리스코타코벨압구정점,FASTFOOD,0269669472,서울특별시 강남구 압구정로28길 22 1층,37.52526235,127.0273734,891013,1,0000000210
올페이,Password123!,01000000211,큐스치킨 어글리스토브 상봉점,WESTERN,024338459,"서울 중랑구 상봉로 131 , 1층 1-B호 (상봉동, 상봉 듀오트리스)",37.5973321,127.0921992,891013,1,0000000211
올페이,Password123!,01000000212,타이가든,GENERAL,027543005,"서울 중구 명동길 55, 3층 302호 (명동1가)",37.56414837,126.98538,891013,1,0000000212
올페이,Password123!,01000000213,태리학동 맥도날드,FASTFOOD,07072090585,"서울 강남구 논현로 667, 맥도널드학동역점 (논현동, 진우빌딩)",37.51356744,127.0305209,891013,1,0000000213
올페이,Password123!,01000000214,테르토에 시드누아 가든파이브점,GENERAL,029389559,"서울 송파구 충민로 66, 1071호 가든파이브라이프 B1070 (문정동, 가든파이브라이프)",37.47771355,127.1251192,891013,1,0000000214
올페이,Password123!,01000000215,툭툭누들타이,GENERAL,07044075130,서울 마포구 성미산로 161-8 (연남동),37.56519749,126.9240457,891013,1,0000000215
올페이,Password123!,01000000216,티디에스코리아,GENERAL,0269561512,서울특별시 강남구 강남대로106길 19 1층,37.50322408,127.0271549,891013,1,0000000216
올페이,Password123!,01000000217,파리크라상 파리크라상연세세브란스점,BAKERY,0222272875,"서울 서대문구 연세로 50-1, 지하층 1층 신촌세브란스병원 (신촌동)",37.56202638,126.9412203,891013,1,0000000217
올페이,Password123!,01000000218,평가옥푸드시스템 역삼점,KOREAN,025171577,서울 강남구 논현로 519 (역삼동),37.5027844,127.0356459,891013,1,0000000218
올페이,Password123!,01000000219,푸드버스 치킨버스 상암점,GENERAL,023388755,"서울 마포구 월드컵북로48길 15, 1층 (상암동)",37.57696108,126.8945456,891013,1,0000000219
올페이,Password123!,01000000220,푸드홀릭에프앤비 스시홀릭,JAPANESE,027027727,"서울특별시 마포구 마포대로 109 지하1층 111호(공덕동, 롯데캐슬프레지던트)",37.54506865,126.9508475,891013,1,0000000220
올페이,Password123!,01000000221,푸르웰,GENERAL,027203411,"서울 중구 을지로 170, 서관 6층 (을지로4가, 을지트윈타워)",37.56614687,126.9973184,891013,1,0000000221
올페이,Password123!,01000000222,핏제리아디부자,WESTERN,027949477,서울 용산구 이태원로55가길 28 (한남동),37.53726442,126.9998031,891013,1,0000000222
올페이,Password123!,01000000223,핑크마우스,GENERAL,0200000000,서울특별시 강남구 선릉로86길 5-4 1층 2호,37.50346749,127.0502374,891013,1,0000000223
올페이,Password123!,01000000224,하이푸드발산,KOREAN,0226664666,서울특별시 강서구 개화동로27가길 33 101호,37.56269531,126.8075251,891013,1,0000000224
올페이,Password123!,01000000225,한미르에프에스,KOREAN,0233980000,서울특별시 중구 장충단로 275 두타몰 지하2층 107호,37.56883553,127.0087117,891013,1,0000000225
올페이,Password123!,01000000226,해우리명동,KOREAN,027784997,"서울 중구 퇴계로 72, 상가 지하1층 125호 리더스뷰남산 (회현동1가)",37.55918,126.9805472,891013,1,0000000226
올페이,Password123!,01000000227,행복한 밥상,KOREAN,0211111111,"서울특별시 광진구 아차산로57길 4 2층(구의동, 풍강빌딩)",37.53870866,127.0883263,891013,1,0000000227
올페이,Password123!,01000000228,행복KOREAN공간,GENERAL,027331392,"서울 종로구 삼청로 124-2, 2층 3층 (삼청동)",37.5863146,126.982022,891013,1,0000000228
올페이,Password123!,01000000229,현대그린푸드,GENERAL,025431450,서울 강남구 압구정로29길 21 (압구정동),37.52867599,127.0276591,891013,1,0000000229
올페이,Password123!,01000000230,호원당에프앤비 호원당압구정점,GENERAL,025110855,"서울 강남구 압구정로34길 26, 1층 (신사동)",37.52639388,127.0305358,891013,1,0000000230
올페이,Password123!,01000000231,홈수끼,KOREAN,024174124,"서울 송파구 위례성대로 134, 1층 지상 (방이동, 한스빌딩)",37.5120497,127.1262446,891013,1,0000000231
올페이,Password123!,01000000232,홍익육개장역삼,KOREAN,025013540,서울 강남구 봉은사로 220 (역삼동),37.50775094,127.0362545,891013,1,0000000232
올페이,Password123!,01000000233,후드크리에이션르어,JAPANESE,025227100,"서울 용산구 이촌로 248, 31동 103-2호 (이촌동, 한강맨션)",37.51938604,126.9750273,891013,1,0000000233
올페이,Password123!,01000000234,후레쉬케터링 서울역점,GENERAL,0533823311,서울특별시 용산구 청파로 378 4층,37.55312426,126.9708107,891013,1,0000000234
올페이,Password123!,01000000235,후레쉬케터링 용산역점,GENERAL,0533823311,서울특별시 용산구 한강대로23길 55 용산역5층,37.52983923,126.964861,891013,1,0000000235
올페이,Password123!,01000000236,휴림 삼백집,KOREAN,025373491,"서울 서초구 신반포로 176, 1층 111-5호 (반포동, 센트럴시티빌딩)",37.50428126,127.0045667,891013,1,0000000236
올페이,Password123!,01000000237,2046팬스테이크,WESTERN,07046869198,서울 종로구 북촌로4길 20 (계동),37.57916883,126.9862035,891013,1,0000000237
올페이,Password123!,01000000238,24시전주명가콩나물국밥,KOREAN,023854400,"서울특별시 은평구 진관2로 12 105,106호",37.63419959,126.9185458,891013,1,0000000238
올페이,Password123!,01000000239,88상회 88핫도그,GENERAL,07041151028,"서울 강남구 강남대로 426, 지상 1층 (역삼동, 진우빌딩)",37.50057204,127.0267699,891013,1,0000000239
올페이,Password123!,01000000240,가든즈,GENERAL,07042150425,서울특별시 동작구 사당로28길 5 1층 101호,37.48413813,126.9797218,891013,1,0000000240
올페이,Password123!,01000000241,가미에프엔아이,KOREAN,0237898293,"서울특별시 중구 명동3길 21 2,3층",37.56464098,126.983414,891013,1,0000000241
올페이,Password123!,01000000242,가빈아카데미,CHINESE,029031256,"서울 강남구 도산대로 420 , 지1층 지122호 (청담동)",37.52302149,127.0422013,891013,1,0000000242
올페이,Password123!,01000000243,가양칼국수버섯매운탕,KOREAN,027840409,"서울특별시 영등포구 국제금융로 78 지하3호 (여의도동,홍우빌딩)",37.52087208,126.9312982,891013,1,0000000243
올페이,Password123!,01000000244,가온호스피탤리티,KOREAN,0260123383,"서울 용산구 이태원로19길 6, 1층 (이태원동)",37.53474823,126.9919973,891013,1,0000000244
올페이,Password123!,01000000245,갈리나데이지,GENERAL,027201248,서울특별시 종로구 자하문로13길 1-4 1층,37.57986934,126.9709518,891013,1,0000000245
올페이,Password123!,01000000246,갈비예찬,KOREAN,029838900,서울 강북구 도봉로 156 (미아동),37.62283701,127.0278661,891013,1,0000000246
올페이,Password123!,01000000247,감성바베큐,WESTERN,023378788,"서울특별시 마포구 월드컵로3길 14 지하1층 B113, B114",37.55103589,126.9123437,891013,1,0000000247
올페이,Password123!,01000000248,감성타코 건대점,GENERAL,024628883,서울특별시 광진구 능동로13길 39 2층,37.54363117,127.069818,891013,1,0000000248
올페이,Password123!,01000000249,감성타코 광화문점,GENERAL,025477710,"서울 종로구 새문안로3길 23, 지하2층 (내수동, 경희궁의아침4단지아파트)",37.57263073,126.9724409,891013,1,0000000249
올페이,Password123!,01000000250,감성타코 홍대점,GENERAL,023378883,"서울 마포구 와우산로21길 20-11, 2,3층 (서교동)",37.55281058,126.9226899,891013,1,0000000250
올페이,Password123!,01000000251,갓텐코리아 갓텐스시 롯데몰은평점,JAPANESE,0269755490,서울특별시 은평구 통일로 1050 4층,37.63753433,126.9178528,891013,1,0000000251
올페이,Password123!,01000000252,갓텐코리아 갓텐스시 롯데월드몰점,JAPANESE,0232134519,서울특별시 송파구 올림픽로 300 캐쥬얼동5층,37.51283603,127.1017118,891013,1,0000000252
올페이,Password123!,01000000253,갓텐코리아 갓텐스시 센트럴시티점,JAPANESE,03116004052,서울특별시 서초구 신반포로 176 1층BPC101-1호,37.50428126,127.0045667,891013,1,0000000253
올페이,Password123!,01000000254,갓텐코리아 갓텐스시 신사점,JAPANESE,0234461477,"서울 강남구 강남대로152길 40  (신사동,지상1,지상2층)",37.51798457,127.0225367,891013,1,0000000254
올페이,Password123!,01000000255,갓텐코리아 갓텐익스프레스 문정점,JAPANESE,025270276,서울특별시 송파구 법원로 128 1층,37.4868314,127.1204539,891013,1,0000000255
올페이,Password123!,01000000256,갓포아키 서래마을점,JAPANESE,025358662,서울특별시 서초구 동광로 113 2층(방배동),37.49403377,126.9947328,891013,1,0000000256
올페이,Password123!,01000000257,강가,WESTERN,027823610,"서울 영등포구 국제금융로2길 7, 힌주빌딩 2층 (여의도동, 한주빌딩)",37.52464747,126.9268367,891013,1,0000000257
올페이,Password123!,01000000258,강가,WESTERN,0237830610,"서울 중구 세종대로 136, B-2 (태평로1가, 파이낸스빌딩)",37.568415,126.978284,891013,1,0000000258
올페이,Password123!,01000000259,강남명전_시야,KOREAN,050713623424,서울특별시 서초구 서초대로75길 45 2층,37.50149404,127.0245354,891013,1,0000000259
올페이,Password123!,01000000260,강동에프앤비,KOREAN,024414060,서울특별시 강동구 상일로6길 39 1층(상일동),37.54983373,127.1753544,891013,1,0000000260
올페이,Password123!,01000000261,강동에프앤비,KOREAN,024417711,서울특별시 강동구 상일로6길 39 1층,37.54983373,127.1753544,891013,1,0000000261
올페이,Password123!,01000000262,강동에프앤비,KOREAN,024292733,"서울특별시 강동구 상일로6길 39 지하1층,(상일동,강동타워)",37.54983373,127.1753544,891013,1,0000000262
올페이,Password123!,01000000263,강동에프앤비 강계,KOREAN,024424288,서울특별시 강동구 상일로6길 39 1층(상일동),37.54983373,127.1753544,891013,1,0000000263
올페이,Password123!,01000000264,강동에프엔비,KOREAN,024412733,서울특별시 강동구 상일로6길 39 1층(상일동),37.54983373,127.1753544,891013,1,0000000264
올페이,Password123!,01000000265,강동푸드,KOREAN,024774308,서울특별시 강동구 양재대로 1317 지하1층,37.52399401,127.1343647,891013,1,0000000265
올페이,Password123!,01000000266,갤러리에이엠,GENERAL,07078607974,"서울 강남구 논현로159길 66 (신사동, 육심원빌딩)",37.52157977,127.0231146,891013,1,0000000266
올페이,Password123!,01000000267,거윤에프앤비,GENERAL,0200000000,서울특별시 강동구 천호대로175길 55 (길동),37.53725626,127.1373205,891013,1,0000000267
올페이,Password123!,01000000268,건강한에프엔비,KOREAN,0243103022,서울특별시 영등포구 당산로 241 3층 305호,37.53519652,126.9025284,891013,1,0000000268
올페이,Password123!,01000000269,건담,GENERAL,0211111111,서울특별시 중구 퇴계로27길 35 1층,37.5627439,126.9912325,891013,1,0000000269
올페이,Password123!,01000000270,건사리테일앤에스테이트,GENERAL,07077853539,서울특별시 서초구 효령로77길 30 강남역 푸르지오,37.49170343,127.0291026,891013,1,0000000270
올페이,Password123!,01000000271,건우컴퍼니,WESTERN,0211111111,서울특별시 강남구 삼성로119길 8 2층 204호,37.51625594,127.0506139,891013,1,0000000271
올페이,Password123!,01000000272,건푸드 냠냠족발&보쌈 강동천호점,KOREAN,024777642,서울특별시 강동구 구천면로42길 83 .,37.54393923,127.1372242,891013,1,0000000272
올페이,Password123!,01000000273,겨울바다,KOREAN,025450313,"서울특별시 강남구 도산대로24길 4 비101호(논현동, ES힐스)",37.51842954,127.0263236,891013,1,0000000273
올페이,Password123!,01000000274,경농,GENERAL,0234885800,서울 서초구 효령로77길 28 (서초동),37.49147845,127.0290388,891013,1,0000000274
올페이,Password123!,01000000275,경복궁 박광일 참치,KOREAN,027324114,"서울 종로구 자하문로 38, 1층 (통의동)",37.57937792,126.971634,891013,1,0000000275
올페이,Password123!,01000000276,경주식당,KOREAN,023221674,서울특별시 마포구 와우산로13길 49-7 1층,37.54843006,126.92114,891013,1,0000000276
올페이,Password123!,01000000277,계림원푸드(노량진점),KOREAN,0200000000,서울특별시 동작구 노량진로8길 8 (노량진동)1층,37.51300114,126.9362095,891013,1,0000000277
올페이,Password123!,01000000278,고기익는마을,KOREAN,0222928999,"서울 성동구 고산자로24길 11-1, 3층 (마장동)",37.5699991,127.0389638,891013,1,0000000278
올페이,Password123!,01000000279,고래루프탑,KOREAN,0200000000,서울특별시 마포구 동교로 220 3층,37.55964777,126.923971,891013,1,0000000279
올페이,Password123!,01000000280,고래불,GENERAL,025563677,"서울특별시 강남구 논현로79길 62 1,2층",37.49627443,127.0339564,891013,1,0000000280
올페이,Password123!,01000000281,고래선박,KOREAN,0200000000,서울특별시 마포구 동교로 220 2층,37.55964777,126.923971,891013,1,0000000281
올페이,Password123!,01000000282,고매푸드 삼표점,KOREAN,024607057,서울 종로구 종로1길 42 (수송동),37.57390288,126.9789833,891013,1,0000000282
올페이,Password123!,01000000283,고메,GENERAL,025887805,"서울특별시 서초구 강남대로 359 지하1층 비101, 비102, 비103",37.49484014,127.0285911,891013,1,0000000283
올페이,Password123!,01000000284,고메공방,GENERAL,07088250908,서울특별시 종로구 수표로28길 23 1층,37.57297978,126.989838,891013,1,0000000284
올페이,Password123!,01000000285,고메인딜리버리특수목적회사,GENERAL,0234639090,서울특별시 강남구 논현로26길 28 1층,37.48298873,127.0448275,891013,1,0000000285
올페이,Password123!,01000000286,고수청담2호점,KOREAN,025485522,"서울특별시 강남구 압구정로79길 18 1,2층(청담동)",37.52505028,127.0486407,891013,1,0000000286
올페이,Password123!,01000000287,고수청담점,KOREAN,025485522,서울특별시 강남구 도산대로58길 15 지상1층2층지하층 청담동,37.52226099,127.0415518,891013,1,0000000287
올페이,Password123!,01000000288,곤트란쉐리에,BAKERY,0264845990,서울특별시 영등포구 국제금융로8길 31 1층,37.5197462,126.9280665,891013,1,0000000288
올페이,Password123!,01000000289,골드피쉬얌차하우스,CHINESE,0221111111,서울특별시 강남구 도산대로49길 36 2층(신사동),37.52530757,127.0371922,891013,1,0000000289
올페이,Password123!,01000000290,골목에프씨,KOREAN,027656580,서울특별시 종로구 혜화로 2 2,37.58608711,127.0008949,891013,1,0000000290
올페이,Password123!,01000000291,곰탕반,KOREAN,027121801,"서울특별시 마포구 백범로 152 101동 1층 6호(공덕동,공덕파크자이)",37.54474001,126.9482654,891013,1,0000000291
올페이,Password123!,01000000292,공영식품 기소야 여의도중앙점,JAPANESE,025649025,"서울 영등포구 여의대로 66, 지하1층 (여의도동, KTB빌딩)",37.52454033,126.9237183,891013,1,0000000292
올페이,Password123!,01000000293,공영식품 기소야플러스 상암,JAPANESE,023039025,"서울특별시 마포구 성암로 267 ,지하1층 111,1112호",37.58110904,126.8910881,891013,1,0000000293
올페이,Password123!,01000000294,공항칼국수,KOREAN,0226649748,서울특별시 강서구 공항대로 18-1 지하1층,37.56104431,126.8091628,891013,1,0000000294
올페이,Password123!,01000000295,광양본가,KOREAN,025678494,서울특별시 강남구 도곡로99길 16 1층(대치동),37.5018452,127.0660167,891013,1,0000000295
올페이,Password123!,01000000296,광양불고기본가,KOREAN,025546877,"서울 강남구 역삼로98길 28 (대치동,해암빌딩1층)",37.50268432,127.0648364,891013,1,0000000296
올페이,Password123!,01000000297,광평,KOREAN,0211111111,서울특별시 강남구 영동대로106길 45 .,37.51435896,127.0648785,891013,1,0000000297
올페이,Password123!,01000000298,광화문아띠 루싱,CHINESE,027339436,"서울 중구 한강대로 416, 지하1층 27-2 128 (남대문로5가, 서울스퀘어)",37.55552188,126.9737628,891013,1,0000000298
올페이,Password123!,01000000299,구슬함박지점,WESTERN,023236771,"서울 서초구 사평대로 205, 파미에스테이션 1층 117 (반포동)",37.50445057,127.0077406,891013,1,0000000299
올페이,Password123!,01000000300,국동푸드 참엔고기,GENERAL,0211111111,서울특별시 성동구 아차산로5길 33 1층(성수동2가),37.54844833,127.0538689,891013,1,0000000300
올페이,Password123!,01000000301,그레이그리스트밀,GENERAL,0223444567,서울특별시 강남구 압구정로2길 15 제지하1층 103호,37.52071537,127.0199556,891013,1,0000000301
올페이,Password123!,01000000302,그로위드,KOREAN,0211111111,서울특별시 마포구 연희로1길 9 동교동 B01호,37.55960471,126.9259657,891013,1,0000000302
올페이,Password123!,01000000303,그릿,GENERAL,025326857,"서울 송파구 올림픽로 300, 11층 (신천동, 롯데월드타워앤드롯데월드몰)",37.51246924,127.1027405,891013,1,0000000303
올페이,Password123!,01000000304,글로벌 봉피양,KOREAN,027956446,서울특별시 용산구 한강대로40길 31 1층,37.53032536,126.9709177,891013,1,0000000304
올페이,Password123!,01000000305,금강수림,KOREAN,025779992,"서울 강남구 강남대로 240, 지하 224호 2층 (도곡동, 양재SK허브프리모)",37.48527638,127.0343855,891013,1,0000000305
올페이,Password123!,01000000306,금고깃집 마곡본점,KOREAN,0236628295,서울특별시 강서구 마곡동로 61 1 2 층 109호 203 205호,37.56063139,126.8331612,891013,1,0000000306
올페이,Password123!,01000000307,금고깃집 발산직영점,KOREAN,0236658292,"서울특별시 강서구 마곡중앙8로 90 105,106,107,202,203,204호",37.56055,126.8375874,891013,1,0000000307
올페이,Password123!,01000000308,금고깃집 하늘직영점,KOREAN,0211111111,서울특별시 강서구 마곡중앙4로 10 A동 107호 108호 111호 114호,37.55857493,126.8279387,891013,1,0000000308
올페이,Password123!,01000000309,길품에프엔비,KOREAN,029987875,서울특별시 강북구 한천로139길 35 1층,37.63874503,127.0253468,891013,1,0000000309
올페이,Password123!,01000000310,김가네 동대문디자인플라자점,KOREAN,0211111111,서울특별시 중구 을지로 281 b2층d6호,37.56707025,127.0098788,891013,1,0000000310
올페이,Password123!,01000000311,김광석신촌칼국수,KOREAN,027170592,서울특별시 마포구 신촌로 124 1층(노고산동),37.55567769,126.9394451,891013,1,0000000311
올페이,Password123!,01000000312,김돈이,KOREAN,025585256,서울 강남구 선릉로94길 9 (삼성동),37.50610791,127.0492453,891013,1,0000000312
올페이,Password123!,01000000313,김영모과자점서초성당점,BAKERY,0234735484,서울특별시 서초구 서초대로64길 41-4 1층,37.49378991,127.0213902,891013,1,0000000313
올페이,Password123!,01000000314,김영태스시앤사시미마을 먹골역점,JAPANESE,029772545,"서울특별시 중랑구 동일로 932 ,1-107,108호(묵동)",37.61365576,127.0775326,891013,1,0000000314
올페이,Password123!,01000000315,김태완스시방배본점,JAPANESE,025880522,"서울특별시 서초구 효령로31길 21 ,1층(방배동)",37.48213219,126.9960777,891013,1,0000000315
올페이,Password123!,01000000316,김태완스시송파본점,JAPANESE,0222023303,"서울특별시 송파구 오금로 148 104,105,106호",37.51048002,127.1111226,891013,1,0000000316
올페이,Password123!,01000000317,꼬레오 (Coreo Co..Ltd.),GENERAL,07011111111,서울특별시 강남구 언주로 530 1층,37.50580741,127.0417294,891013,1,0000000317
올페이,Password123!,01000000318,꽃누리들밥 경복궁점,KOREAN,0211111111,서울특별시 종로구 율곡로1길 31 지하1층(사간동),37.57735326,126.9802974,891013,1,0000000318
올페이,Password123!,01000000319,꽃향기,GENERAL,0231440501,서울특별시 강서구 화곡로 142 3층301호,37.5405504,126.8375759,891013,1,0000000319
올페이,Password123!,01000000320,끝판왕에프앤비,GENERAL,0234785050,"서울특별시 서초구 서초대로77길 29 지하1층 (서초동, 수호빌딩)",37.50033401,127.0254677,891013,1,0000000320
올페이,Password123!,01000000321,끼니푸드 새마을운동중앙회,GENERAL,0415777676,서울특별시 강남구 영동대로 316 지하2층 (대치동),37.50270976,127.0671496,891013,1,0000000321
올페이,Password123!,01000000322,나루완아시아 메이탄 (강서),CHINESE,0226998686,"서울특별시 강서구 강서로 242 상가동2층214,215호 (화곡동,강서힐스테이트)",37.54738337,126.836763,891013,1,0000000322
올페이,Password123!,01000000323,나이스에프앤비,KOREAN,0226045677,서울특별시 강서구 강서로 211 103호 104호,37.54461646,126.8371739,891013,1,0000000323
올페이,Password123!,01000000324,나이아가라관광,WESTERN,0236642233,서울특별시 강서구 양천로 743 (염창동),37.54918817,126.8786291,891013,1,0000000324
올페이,Password123!,01000000325,나주소나주곰탕,KOREAN,027359871,"서울특별시 종로구 새문안로 87-1 1층, 2층",37.57047415,126.9743577,891013,1,0000000325
올페이,Password123!,01000000326,낙원아구찜,KOREAN,027638558,서울특별시 종로구 삼일대로 436 .,37.57349816,126.9879994,891013,1,0000000326
올페이,Password123!,01000000327,낙지세상 신대방본점,KOREAN,028345777,서울특별시 동작구 대림로 57 1층,37.48822954,126.9070803,891013,1,0000000327
올페이,Password123!,01000000328,남도분식 타임스퀘어점,KOREAN,0200000000,"서울 영등포구 영중로 15, 지하1층 (영등포동4가, 타임스퀘어)",37.51719571,126.9036461,891013,1,0000000328
올페이,Password123!,01000000329,남소영,GENERAL,0200000000,서울특별시 중구 퇴계로56길 46 지하1층,37.5619243,127.0056785,891013,1,0000000329
올페이,Password123!,01000000330,남영에프엔비 약천 서울고속버스터미널점,KOREAN,025957177,"서울특별시 서초구 신반포로 194 부속동 1층 4호(반포동,강남고속버스터미널)",37.50643531,127.0068331,891013,1,0000000330
올페이,Password123!,01000000331,남원추어탕,KOREAN,024988649,서울 광진구 동일로 114 (화양동),37.54266737,127.0647499,891013,1,0000000331
올페이,Password123!,01000000332,내고향쌀국수,GENERAL,024138886,"서울특별시 송파구 올림픽로35길 124 상가2동 지하1층 13-1,13-2,20-1,20-2호(신천동,장비아파트)",37.51733945,127.1007164,891013,1,0000000332
올페이,Password123!,01000000333,네모집청담점,KOREAN,025163355,서울특별시 강남구 선릉로148길 28 1 지하동 청담동,37.52260384,127.0418485,891013,1,0000000333
올페이,Password123!,01000000334,네버다이피닉스 황곱,KOREAN,023378292,서울특별시 마포구 어울마당로 149 1층,37.55672221,126.9263903,891013,1,0000000334
올페이,Password123!,01000000335,네세서리,KOREAN,0200000000,서울특별시 마포구 연희로1길 28 지하1층 우측 비02호,37.56021547,126.9255747,891013,1,0000000335
올페이,Password123!,01000000336,넥스트필드 용마지점,GENERAL,0317169981,서울특별시 중랑구 망우로70길 103 망우동 용마실내테니스상,37.59614648,127.1049035,891013,1,0000000336
올페이,Password123!,01000000337,노랑한상정육식점,KOREAN,025661560,"서울특별시 강남구 삼성로104길 17 , 1층 (삼성동, 대모빌딩)",37.51119623,127.0559543,891013,1,0000000337
올페이,Password123!,01000000338,노아에프엔비(노아베이커리 잠실엘스점),BAKERY,024167588,서울특별시 송파구 올림픽로 119 지상1층 1에이18호,37.51208437,127.0841862,891013,1,0000000338
올페이,Password123!,01000000339,노아종합상사(노아베이커리),BAKERY,025487588,"서울특별시 강남구 학동로68길 7 1단지상가 105호(삼성동,삼성동힐스테이트)",37.517607,127.0467462,891013,1,0000000339
올페이,Password123!,01000000340,놀부부대찌개 앤 철판구이,KOREAN,0215776877,"서울 영등포구 영중로 15, B143호 지하1 (영등포동4가, 타임스퀘어)",37.51719571,126.9036461,891013,1,0000000340
올페이,Password123!,01000000341,농심,GENERAL,0222223333,서울특별시 용산구 청파로 378 3층 222호,37.55312426,126.9708107,891013,1,0000000341
올페이,Password123!,01000000342,농심 코코이찌방야용산아모레퍼시픽점,GENERAL,027958003,"서울특별시 용산구 한강대로 100 지하1층 B104-3호(한강대로2가, 아모레퍼시픽)",37.52879143,126.9686733,891013,1,0000000342
올페이,Password123!,01000000343,농심-코코이찌방야청량리역점,KOREAN,029645510,"서울 동대문구 왕산로 214, 306호 (전농동)",37.5777573,127.0453439,891013,1,0000000343
올페이,Password123!,01000000344,농협유통 양재하나로클럽,KOREAN,0234981168,서울특별시 서초구 청계산로 10 (양재동),37.46274285,127.043452,891013,1,0000000344
올페이,Password123!,01000000345,누아누아,GENERAL,0200000000,서울특별시 관악구 신림로 330 9층,37.4838517,126.9302435,891013,1,0000000345
올페이,Password123!,01000000346,뉴본 평방옥,GENERAL,025019194,서울특별시 강남구 테헤란로22길 12 1층,37.49906372,127.0349088,891013,1,0000000346
올페이,Password123!,01000000347,뉴서진식품 뚝배기양평해장국장안직영,GENERAL,0222445540,"서울 동대문구 장한로 51, 1층 (장안동, 성안빌딩)",37.56570033,127.0671341,891013,1,0000000347
올페이,Password123!,01000000348,뉴선궁,CHINESE,029915959,"서울 송파구 송이로 171, 2층 (가락동, 상아빌딩)",37.49209565,127.1262009,891013,1,0000000348
올페이,Password123!,01000000349,뉴진씨앤피,WESTERN,023380988,"서울특별시 마포구 월드컵로3길 14 딜라이트스퀘어 103호, 104호",37.55103589,126.9123437,891013,1,0000000349
올페이,Password123!,01000000350,늘솜,GENERAL,025942018,"서울특별시 서초구 서래로6길 7 1,2층",37.49787537,126.9988653,891013,1,0000000350
올페이,Password123!,01000000351,늘솜 생어거스틴 마곡점,GENERAL,0226632018,서울특별시 강서구 공항대로 236 2층,37.55853893,126.8337476,891013,1,0000000351
올페이,Password123!,01000000352,늘푸른목장,KOREAN,0234314520,서울특별시 송파구 백제고분로9길 34 1층,37.50958291,127.0826658,891013,1,0000000352
올페이,Password123!,01000000353,다래애,KOREAN,027199700,"서울 마포구 마포대로 49, 지하1층 17호 (도화동, 성우빌딩)",37.54086874,126.9468945,891013,1,0000000353
올페이,Password123!,01000000354,다로베,WESTERN,0200000000,서울특별시 강남구 선릉로 757 1층,37.52220617,127.0390189,891013,1,0000000354
올페이,Password123!,01000000355,다미정,JAPANESE,0222377779,서울특별시 송파구 양재대로 932 3층 3-1호,37.49122074,127.112864,891013,1,0000000355
올페이,Password123!,01000000356,다미정,JAPANESE,0222677779,서울특별시 송파구 양재대로 932 3층 004-1호,37.49122074,127.112864,891013,1,0000000356
올페이,Password123!,01000000357,다솔외식,GENERAL,025374217,"서울 강남구 테헤란로 101, 지하1층 5호 (역삼동, 이지타워)",37.4986092,127.0280961,891013,1,0000000357
올페이,Password123!,01000000358,다함컴퍼니,GENERAL,0211111111,서울특별시 송파구 백제고분로45길 12 2층(송파동),37.50962778,127.1101605,891013,1,0000000358
올페이,Password123!,01000000359,닥터로빈 강남점,GENERAL,025373621,"서울 서초구 고무래로 8, 지하1층 ,지상1,2층 (반포동, 신성빌딩)",37.50366202,127.0100309,891013,1,0000000359
올페이,Password123!,01000000360,닥터로빈 고척점,GENERAL,0220668211,서울특별시 구로구 경인로46길 51 3층 (고척동),37.49562555,126.8657591,891013,1,0000000360
올페이,Password123!,01000000361,닥터로빈 광화문점,GENERAL,0222518510,"서울 종로구 종로3길 17, 5층 3호 (청진동, D타워)",37.57106814,126.9788969,891013,1,0000000361
올페이,Password123!,01000000362,닥터로빈 목동점,GENERAL,0226463101,"서울 양천구 목동서로 299, W동 1층 101호 트라팰리스 웨스턴애비뉴 (신정동, 토피아빌딩)",37.52052633,126.8688061,891013,1,0000000362
올페이,Password123!,01000000363,닥터로빈 시그니쳐 서초점,GENERAL,025223101,서울특별시 서초구 서초대로74길 11 지하1층 103호,37.49657435,127.0269412,891013,1,0000000363
올페이,Password123!,01000000364,닥터로빈 흑석점,GENERAL,0232803103,"서울 동작구 현충로 124, 뉴지엄 지하1층 2층 (흑석동)",37.50633,126.9670886,891013,1,0000000364
올페이,Password123!,01000000365,닥터로빈공덕점,GENERAL,0232733103,"서울 마포구 백범로 192, 1층 (공덕동, 에쓰오일사옥빌딩)",37.54323669,126.9516056,891013,1,0000000365
올페이,Password123!,01000000366,단추로끓인수프,FASTFOOD,07088822252,"서울 강남구 삼성로 571, 지하1층 14호 (삼성동, 경산빌딩)",37.51235272,127.0532092,891013,1,0000000366
올페이,Password123!,01000000367,달떡볶이,KOREAN,0200000000,"서울특별시 중랑구 면목로 381-1 ,1층 왼쪽 점포1칸",37.58611567,127.0881536,891013,1,0000000367
올페이,Password123!,01000000368,달맞이,KOREAN,0211111111,서울특별시 강남구 학동로2길 28 1층 101호(논현동),37.50955677,127.0228613,891013,1,0000000368
올페이,Password123!,01000000369,대단한싹제빵소,GENERAL,07024582850,서울특별시 성북구 화랑로 112 1층,37.60380437,127.0443588,891013,1,0000000369
올페이,Password123!,01000000370,대도캐터링,KOREAN,024559835,서울 광진구 광나루로 596 (구의동),37.54203017,127.094371,891013,1,0000000370
올페이,Password123!,01000000371,대명라이프웨이,KOREAN,029591126,"서울 동대문구 경희대로1가길 11, 1층 (회기동)",37.59239311,127.0513527,891013,1,0000000371
올페이,Password123!,01000000372,대명라이프웨이,KOREAN,0222227663,"서울 서초구 효령로31길 19, 1층 (방배동)",37.48203074,126.9961342,891013,1,0000000372
올페이,Password123!,01000000373,대진도원참치,GENERAL,025564588,"서울특별시 강남구 테헤란로 113 지하1층 제비101호(약삼동,목화밀라트)",37.49897767,127.0295333,891013,1,0000000373
올페이,Password123!,01000000374,대현에프앤비,FASTFOOD,0264521599,"서울 마포구 양화로 45  메세나폴리스몰 B194호,B195호",37.55076106,126.9142006,891013,1,0000000374
올페이,Password123!,01000000375,대현유통 바른 풍천장어 직판장,GENERAL,0234409914,"서울 강남구 강남대로62길 38, 지하1층 102호 (역삼동)",37.49095612,127.0346701,891013,1,0000000375
올페이,Password123!,01000000376,대화씨앤에프,KOREAN,0226591410,서울특별시 강서구 양천로 360 1층(가양동),37.56765107,126.8422419,891013,1,0000000376
올페이,Password123!,01000000377,댓짱돈까스,KOREAN,025847348,"서울 서초구 방배로 43, 1층 (방배동)",37.47855413,126.9992562,891013,1,0000000377
올페이,Password123!,01000000378,더라운드,CHINESE,025454448,"서울 강남구 선릉로148길 37 , 지하1, 지상1,2층 (청담동)",37.52301156,127.0425271,891013,1,0000000378
올페이,Password123!,01000000379,더래빗코리아,GENERAL,027491213,서울특별시 용산구 이태원로20가길 7-2 2층,37.53373442,126.9926799,891013,1,0000000379
올페이,Password123!,01000000380,더맛있는족발,KOREAN,0226920419,서울특별시 강서구 공항대로46길 89 1층,37.55219167,126.8511422,891013,1,0000000380
올페이,Password123!,01000000381,더미래건설 군산횟집,KOREAN,024595700,"서울특별시 강남구 헌릉로569길 13 1층101,102호 (세곡동,라온프라이빗시티)",37.46682816,127.1000354,891013,1,0000000381
올페이,Password123!,01000000382,더바른식당,KOREAN,07000000000,서울특별시 종로구 종로 266 비동 6층 9호,37.57041453,127.0073555,891013,1,0000000382
올페이,Password123!,01000000383,더박스 나이트캡,WESTERN,07041270704,서울특별시 강남구 논현로152길 9 7층,37.52109923,127.0289369,891013,1,0000000383
올페이,Password123!,01000000384,더박스 코리 레스토랑,WESTERN,025422587,서울특별시 강남구 논현로152길 9 4층(신사동),37.52109923,127.0289369,891013,1,0000000384
올페이,Password123!,01000000385,더박스 코리 프라이빗룸,WESTERN,025422588,서울특별시 강남구 논현로152길 9 정유석,37.52109923,127.0289369,891013,1,0000000385
올페이,Password123!,01000000386,더브레드블루 신촌지점,GENERAL,07077630723,서울특별시 마포구 신촌로12다길 3 1층,37.55515958,126.9327808,891013,1,0000000386
올페이,Password123!,01000000387,더블랙스미스,KOREAN,023256633,서울특별시 서대문구 연세로 27-1 3층,37.55811975,126.9366817,891013,1,0000000387
올페이,Password123!,01000000388,더블유케이에스글로벌(WKS Global),GENERAL,0220581388,"서울특별시 강남구 양재대로 333 3층 (개포동, 유림빌딩)",37.4719228,127.0510128,891013,1,0000000388
올페이,Password123!,01000000389,더블제이에프앤비코리아 우향우 압구정지점,KOREAN,0211111111,"서울특별시 강남구 도산대로49길 23 , 지하2층(신사동, 휘오레)",37.52445887,127.0368486,891013,1,0000000389
올페이,Password123!,01000000390,더쇼룸,GENERAL,0234766549,"서울특별시 강남구 논현로153길 41 1층,2층",37.5203286,127.0248856,891013,1,0000000390
올페이,Password123!,01000000391,더에이치엠 한솥도시락 광운대점,KOREAN,029410799,서울 노원구 광운로 20 지하1층,37.62006778,127.0610761,891013,1,0000000391
올페이,Password123!,01000000392,더원,CHINESE,025454448,"서울특별시 강남구 영동대로 648 ,2층(삼성동,삼안빌딩)",37.51998991,127.0576526,891013,1,0000000392
올페이,Password123!,01000000393,더차이상암,CHINESE,023030838,"서울특별시 마포구 성암로 267 2층 204호,205호",37.58110904,126.8910881,891013,1,0000000393
올페이,Password123!,01000000394,더케이에프엔비,WESTERN,0200000000,"서울특별시 강남구 봉은사로37길 7-6 , 나동 지하1층 B101호(논현동)",37.50883658,127.0363849,891013,1,0000000394
올페이,Password123!,01000000395,더케이에프엔비 공룡쌀국수,GENERAL,0200000000,"서울특별시 강남구 봉은사로37길 11 , 지하1층 B105호(논현동)",37.50902989,127.0365984,891013,1,0000000395
올페이,Password123!,01000000396,더케이에프엔비 구름카츠,JAPANESE,0211111111,"서울특별시 강남구 봉은사로37길 11 , 지하1층(논현동)",37.50902989,127.0365984,891013,1,0000000396
올페이,Password123!,01000000397,더케이에프엔비 다이노컴퍼니,GENERAL,03200000000,"서울특별시 강남구 봉은사로37길 11 , 지하1층 B103호호(논현동)",37.50902989,127.0365984,891013,1,0000000397
올페이,Password123!,01000000398,더케이에프엔비 요녀석 타코앤브리또,WESTERN,0200000000,"서울특별시 강남구 봉은사로37길 11 , 지하1층 B102호(논현동)",37.50902989,127.0365984,891013,1,0000000398
올페이,Password123!,01000000399,더케이에프엔비 잇쇼타코야끼,JAPANESE,0211111111,"서울특별시 강남구 봉은사로37길 11 , 지하1층 B104호(논현동)",37.50902989,127.0365984,891013,1,0000000399
올페이,Password123!,01000000400,더케이에프엔비 찜슐랭,KOREAN,0200000000,"서울특별시 강남구 봉은사로37길 7-6 , 나동 지하1층 B101호(논현동)",37.50883658,127.0363849,891013,1,0000000400
올페이,Password123!,01000000401,더피앤에이치(서울대역점),KOREAN,028762993,서울특별시 관악구 관악로17길 3 1층,37.48063235,126.9515211,891013,1,0000000401
올페이,Password123!,01000000402,더힐링 파리바게트 엘에스점,BAKERY,027497798,"서울특별시 용산구 한강대로 92 지하1층 10호 (한강로2가 ,LS타워)",37.52820001,126.9675289,891013,1,0000000402
올페이,Password123!,01000000403,덕승재,KOREAN,0263930530,"서울 마포구 월드컵북로 361, 2901 (상암동, DMC이안오피스텔)",37.57710621,126.8914064,891013,1,0000000403
올페이,Password123!,01000000404,던킨도너츠 김포공항국내선,BAKERY,0222764755,서울특별시 강서구 하늘길 112 국내선청사2층,37.56057604,126.8012665,891013,1,0000000404
올페이,Password123!,01000000405,델리에프에스 델리산학현력점,KOREAN,023803274,서울특별시 마포구 매봉산로 37 15층,37.5760704,126.8905832,891013,1,0000000405
올페이,Password123!,01000000406,델리에프에스 델리첨단산업점,GENERAL,0234530835,서울특별시 마포구 성암로 330 8층,37.58468913,126.8860601,891013,1,0000000406
올페이,Password123!,01000000407,도꼭지,KOREAN,027120431,"서울 송파구 잠실로 209, 2층 12호 (신천동, KT송파타워)",37.51383209,127.1061304,891013,1,0000000407
올페이,Password123!,01000000408,도마 (중림동점),KOREAN,0260071856,서울특별시 중구 중림로 31 1층 (만리동1가),37.55827047,126.9671241,891013,1,0000000408
올페이,Password123!,01000000409,도스타코스,GENERAL,027978525,"서울 용산구 한남대로18길 26, 지하1층 (한남동)",37.53455894,127.008652,891013,1,0000000409
올페이,Password123!,01000000410,도치피자성수,FASTFOOD,024988007,서울특별시 성동구 연무장길 7 1~2층(성수동2가),37.54403695,127.0503816,891013,1,0000000410
올페이,Password123!,01000000411,도쿄등심트리플,GENERAL,025142260,"서울 강남구 도산대로81길 18, 2층 (청담동)",37.52555696,127.0477591,891013,1,0000000411
올페이,Password123!,01000000412,도하코리아,CHINESE,0222127772,서울특별시 동대문구 장한로 37 1층 101호 (장안동),37.56461556,127.0664237,891013,1,0000000412
올페이,Password123!,01000000413,돌우물에프엔비,KOREAN,0231111111,서울특별시 관악구 은천로 186 2층,37.48557392,126.955705,891013,1,0000000413
올페이,Password123!,01000000414,동교패밀리,GENERAL,0244184900,서울특별시 강남구 도산대로1길 16 1층,37.51770145,127.0200541,891013,1,0000000414
올페이,Password123!,01000000415,동대문엽기떡볶이,KOREAN,0222368592,"서울특별시 중구 퇴계로75길 15 흥인동,지하1층,1층102호",37.56609827,127.0155524,891013,1,0000000415
올페이,Password123!,01000000416,동민수산 시마스시 청량리역사,JAPANESE,024178482,서울특별시 동대문구 왕산로 214 3층 306호,37.5777573,127.0453439,891013,1,0000000416
올페이,Password123!,01000000417,동북뼈다귀수타면,CHINESE,028587755,서울 구로구 우마길 3 (가리봉동),37.48240888,126.8876196,891013,1,0000000417
올페이,Password123!,01000000418,동산아이에프에스,GENERAL,027223877,서울특별시 종로구 새문안로 87 1층,37.57037439,126.974292,891013,1,0000000418
올페이,Password123!,01000000419,동서유통,FASTFOOD,025941199,"서울 동작구 동작대로 129, 1층 (사당동)",37.48828806,126.9818917,891013,1,0000000419
올페이,Password123!,01000000420,동심,GENERAL,02231111,서울특별시 서초구 강남대로37길 12-3 동심빌딩 지하1층(서초동),37.48503667,127.0325619,891013,1,0000000420
올페이,Password123!,01000000421,동원브이아이피참치 석탄회관점,JAPANESE,0211111111,"서울 종로구 종로5길 58, 지하1층 (수송동, 석탄회관빌딩)",37.57291532,126.9803354,891013,1,0000000421
올페이,Password123!,01000000422,동원홈푸드 크리스피프레시 파미에스테이션점,GENERAL,025959080,"서울특별시 서초구 사평대로 205 1층 FP119호(반포동, 파미에스테이션)",37.50445057,127.0077406,891013,1,0000000422
올페이,Password123!,01000000423,두부이야기봉천점,KOREAN,028751006,서울특별시 관악구 양녕로 21-1 1층,37.48408515,126.9464975,891013,1,0000000423
올페이,Password123!,01000000424,두산 유통사업부 두타몰,KOREAN,0233984275,"서울 중구 장충단로 275 , (을지로6가)",37.56883553,127.0087117,891013,1,0000000424
올페이,Password123!,01000000425,두영에프앤비,GENERAL,024666555,서울특별시 광진구 광나루로52길 114 103호,37.53901903,127.0897187,891013,1,0000000425
올페이,Password123!,01000000426,뒤뜰,KOREAN,0226131973,서울특별시 구로구 안양천로539길 6 1층 고척동,37.50509886,126.8706019,891013,1,0000000426
올페이,Password123!,01000000427,듀오플,JAPANESE,0211111111,서울특별시 강서구 마곡동로10길 23 130호,37.56856959,126.8393926,891013,1,0000000427
올페이,Password123!,01000000428,드림필드 코리아,GENERAL,0269252879,서울특별시 서초구 사평대로 353 3층 305호,37.50424935,127.0217888,891013,1,0000000428
올페이,Password123!,01000000429,드립드랍 논현점,GENERAL,07077079493,서울특별시 강남구 학동로43길 38 지하2층 201호 주방35호,37.5184681,127.0380336,891013,1,0000000429
올페이,Password123!,01000000430,드립드랍 서초점,GENERAL,07044527168,서울특별시 서초구 서초대로 350 지하층 101호 주방20호,37.49521387,127.0198299,891013,1,0000000430
올페이,Password123!,01000000431,드립드랍송파점,GENERAL,07042493347,서울특별시 송파구 오금로 194 지하1층B101호주방1호,37.50819048,127.1154307,891013,1,0000000431
올페이,Password123!,01000000432,디마떼오브란디,GENERAL,027474444,서울 종로구 동숭길 29 (동숭동),37.58002841,127.0039356,891013,1,0000000432
올페이,Password123!,01000000433,디아그라,WESTERN,07082304320,서울 용산구 이태원로 153 지하1층 (이태원동),37.53460332,126.9909761,891013,1,0000000433
올페이,Password123!,01000000434,디앤오,GENERAL,0269871392,서울특별시 강서구 마곡중앙10로 30 통합지원센터동 7층,37.56207601,126.8319136,891013,1,0000000434
올페이,Password123!,01000000435,디앤오 더본 테이스티,GENERAL,07000000000,"서울특별시 영등포구 여의대로 128 지하1층 3호(여의도동,LG트윈타워)",37.52788544,126.9291392,891013,1,0000000435
올페이,Password123!,01000000436,디앤오 띤띤 트윈타워점,GENERAL,07000000000,"서울특별시 영등포구 여의대로 128 지하1층 4호(여의도동,LG트윈타워)",37.52788544,126.9291392,891013,1,0000000436
올페이,Password123!,01000000437,디앤오 루이 LG트윈타워점,GENERAL,0211111111,"서울특별시 영등포구 여의대로 128 지하1층 10호(여의도동,LG트윈타워)",37.52788544,126.9291392,891013,1,0000000437
올페이,Password123!,01000000438,디앤오 소희원,GENERAL,0211111111,서울특별시 영등포구 여의대로 128 지하1층 9호,37.52788544,126.9291392,891013,1,0000000438
올페이,Password123!,01000000439,디앤오 스마일즈,KOREAN,0237731499,"서울 영등포구 여의대로 128, 동관 3층 (여의도동, LG트윈타워)",37.52788544,126.9291392,891013,1,0000000439
올페이,Password123!,01000000440,디앤오 오사이초밥 트윈타워점,JAPANESE,07000000000,"서울특별시 영등포구 여의대로 128 지하1층 6호(여의도동,LG트윈타워)",37.52788544,126.9291392,891013,1,0000000440
올페이,Password123!,01000000441,디앤오 쿠차라 여의도 LG트윈타워점,GENERAL,07000000000,"서울특별시 영등포구 여의대로 128 지하1층 5,7호(여의도동,LG트윈타워)",37.52788544,126.9291392,891013,1,0000000441
올페이,Password123!,01000000442,디에이치디엔에이,KOREAN,029031909,"서울 강북구 덕릉로 79, 2층 좌측 (수유동)",37.63479657,127.0226024,891013,1,0000000442
올페이,Password123!,01000000443,디에이치푸드(꿍탈레),GENERAL,0234464961,서울특별시 강남구 압구정로10길 14 신사동,37.52278208,127.0217382,891013,1,0000000443
올페이,Password123!,01000000444,디에즈코리아(리볼리),GENERAL,024690344,서울특별시 성동구 연무장9길 4 2층(성수동2가),37.54269603,127.0559621,891013,1,0000000444
올페이,Password123!,01000000445,디와이푸드,JAPANESE,0220561291,"서울 강남구 압구정로60길 21, 분더샵청담점 A동 5층 (청담동)",37.52587527,127.0419622,891013,1,0000000445
올페이,Password123!,01000000446,디코레 북창동 순두부 본점,KOREAN,023184350,"서울 중구 세종대로 78, 2층 (태평로2가)",37.56313395,126.9769807,891013,1,0000000446
올페이,Password123!,01000000447,디코레 북창동순두부 서울화,KOREAN,0226964350,서울특별시 강서구 화곡로 154 1층,37.54100876,126.8389308,891013,1,0000000447
올페이,Password123!,01000000448,딘타이펑코리아 강남지점,CHINESE,025692778,"서울 서초구 서초대로73길 12, 2층 (서초동, 세계빌딩)",37.49855988,127.0257348,891013,1,0000000448
올페이,Password123!,01000000449,딘타이펑코리아 명동중앙점,CHINESE,0237892778,"서울 중구 명동7길 13 , 지상2층 (명동1가)",37.56432907,126.9839379,891013,1,0000000449
올페이,Password123!,01000000450,딘타이펑코리아 영등포점,CHINESE,0226382780,서울 영등포구 영중로 15(영등포4가 경방타임스퀘어단지 지상4층),37.51719571,126.9036461,891013,1,0000000450
올페이,Password123!,01000000451,뚝배기양평해장국양재점,KOREAN,025750950,서울특별시 서초구 강남대로30길 68 1층(양재동),37.48264107,127.0409333,891013,1,0000000451
올페이,Password123!,01000000452,뚝심 마곡점,KOREAN,0269490489,"서울특별시 강서구 마곡중앙6로 76-3 지하1층 제비01호,02호",37.55967123,126.8358083,891013,1,0000000452
올페이,Password123!,01000000453,뚝심 목동점,KOREAN,0226460489,"서울특별시 양천구 목동동로 293 ,지1층 B-20-2 일부호",37.52817053,126.8757543,891013,1,0000000453
올페이,Password123!,01000000454,뚝심 센터원점,KOREAN,0260308905,"서울특별시 중구 을지로5길 26 지하2층 B202호(수하동, 미래에셋 센터원(Mirae Asset CENTER1))",37.56734275,126.9851447,891013,1,0000000454
올페이,Password123!,01000000455,뚱뚱한독수리 샐러디 학동역점,GENERAL,0269566738,서울특별시 강남구 학동로 165 지상1층 103호,37.51386523,127.0289783,891013,1,0000000455
올페이,Password123!,01000000456,띤띤,GENERAL,0236677270,"서울특별시 영등포구 영중로 15 지하1층142호 띤띤(영등포동4가,타임스퀘어)",37.51719571,126.9036461,891013,1,0000000456
올페이,Password123!,01000000457,라까사호텔 까사밀 서교점,GENERAL,023237232,"서울 마포구 양화로 107, 2층 (서교동)",37.55351706,126.9187874,891013,1,0000000457
올페이,Password123!,01000000458,라라벨로,KOREAN,07046473400,서울특별시 마포구 동교로27길 27 2층,37.55914182,126.9220539,891013,1,0000000458
올페이,Password123!,01000000459,라라브래드(공릉동지점),BAKERY,0218002790,"서울특별시 노원구 공릉로41길 32 , 1층(공릉동)",37.62486681,127.077859,891013,1,0000000459
올페이,Password123!,01000000460,라라브레드잠실점,GENERAL,0218001990,"서울특별시 송파구 오금로16길 4 지하1층,1~2층(송파동)",37.51112865,127.1091042,891013,1,0000000460
올페이,Password123!,01000000461,라온사람들,KOREAN,028304661,"서울 구로구 새말로 89, 201 (구로동)",37.50560122,126.8898297,891013,1,0000000461
올페이,Password123!,01000000462,라온사람들 서울안심정육,KOREAN,028304661,서울특별시 영등포구 국회대로74길 10 지하1층,37.53028811,126.9208425,891013,1,0000000462
올페이,Password123!,01000000463,라온사람들 서울안심축산 마포점,KOREAN,0232721515,서울특별시 마포구 토정로35길 11 지하1층 지상1층,37.54049947,126.9439573,891013,1,0000000463
올페이,Password123!,01000000464,라온잇,GENERAL,0211111111,서울특별시 마포구 백범로1길 8-15 1층,37.55370525,126.9378993,891013,1,0000000464
올페이,Password123!,01000000465,라크루뜨,BAKERY,0200000000,서울특별시 강서구 공항대로 237 111-112호,37.55950446,126.8338937,891013,1,0000000465
올페이,Password123!,01000000466,라포르엘 랜디스도넛 안국점,BAKERY,027470621,"서울특별시 종로구 북촌로 3 , 1층",37.57717974,126.9857276,891013,1,0000000466
올페이,Password123!,01000000467,라플랑끄,WESTERN,07077193010,"서울 용산구 이태원로26길 26, 2층 (이태원동)",37.53335231,126.9935221,891013,1,0000000467
올페이,Password123!,01000000468,락희앤컴퍼니 을지로지점,KOREAN,027729797,"서울 중구 을지로 101, 2층 (을지로2가, 정익빌딩)",37.56644164,126.9891666,891013,1,0000000468
올페이,Password123!,01000000469,란콰이펑누들,CHINESE,0236622948,"서울특별시 강서구 마곡중앙6로 63 1동1층101호(마곡동,마곡테크노타워)",37.56047252,126.8344099,891013,1,0000000469
올페이,Password123!,01000000470,런치스페이스,GENERAL,07047892381,서울특별시 마포구 마포대로10길 12 4층,37.54705429,126.9543123,891013,1,0000000470
올페이,Password123!,01000000471,레드애플,GENERAL,0200000000,서울특별시 중구 한강대로 416 지하1층 3호 서울스퀘어,37.55552188,126.9737628,891013,1,0000000471
올페이,Password123!,01000000472,레드캡 가좌점,FASTFOOD,023760160,"서울 서대문구 모래내로15길 32, 1층 (남가좌동)",37.57333749,126.9203515,891013,1,0000000472
올페이,Password123!,01000000473,레디투스세븐,GENERAL,025430320,서울특별시 강남구 압구정로11길 37-53 (압구정동),37.52904479,127.0192622,891013,1,0000000473
올페이,Password123!,01000000474,레솔베르,WESTERN,0234465546,서울특별시 강남구 도산대로57길 13-4 2층,37.52470384,127.0409913,891013,1,0000000474
올페이,Password123!,01000000475,레이블코퍼레이션,WESTERN,024692982,"서울특별시 강남구 강남대로126길 30 (논현동,스퀘어146)",37.50974349,127.0249468,891013,1,0000000475
올페이,Password123!,01000000476,로꼬브리또,GENERAL,024568881,"서울 강동구 진황도로 100, 1층 104호 (길동, 하이브)",37.53531381,127.137385,891013,1,0000000476
올페이,Password123!,01000000477,로보아르테 롸버트치킨 성수점,GENERAL,025430557,"서울 성동구 아차산로17길 49 , 1층 120호(생각공장데시앙플렉스) (성수동2가)",37.54670996,127.0652198,891013,1,0000000477
올페이,Password123!,01000000478,로봇에프앤비 로봇김밥 신촌세브란스점,GENERAL,0222278297,"서울 서대문구 연세로 50-1, 지하1층 (신촌동, 연세의료원)",37.56301135,126.9416826,891013,1,0000000478
올페이,Password123!,01000000479,로봇에프앤비로봇김밥신분당,KOREAN,027939993,서울특별시 강남구 테헤란로 101 지하1층5호,37.4986092,127.0280961,891013,1,0000000479
올페이,Password123!,01000000480,로컬릿,WESTERN,0222821124,서울특별시 성동구 한림말길 33 2층,37.54094843,127.014758,891013,1,0000000480
올페이,Password123!,01000000481,롯데리아,BAKERY,027091058,"서울 용산구 한강대로71길 47 (갈월동, 롯데리아)",37.54130599,126.9716971,891013,1,0000000481
올페이,Password123!,01000000482,롯데리아,FASTFOOD,0234538953,"서울 강남구 테헤란로 203, 2층 (역삼동, 서울인터내셔널타워)",37.50161083,127.0377164,891013,1,0000000482
올페이,Password123!,01000000483,롯데리아,FASTFOOD,0237845378,서울 송파구 올림픽로 509 (풍납동),37.52787377,127.118383,891013,1,0000000483
올페이,Password123!,01000000484,롯데리아 광화문점,FASTFOOD,027092043,"서울 금천구 벚꽃로 104 (독산동, 독산역롯데캐슬금천롯데타워)",37.464564,126.8910696,891013,1,0000000484
올페이,Password123!,01000000485,롯데리아 당산점,FASTFOOD,0220693324,"서울 영등포구 양평로 46 (당산동6가, 동구빌딩)",37.53446719,126.9016459,891013,1,0000000485
올페이,Password123!,01000000486,롯데리아 보네스빼브레드 이수역,FASTFOOD,027092044,서울 동작구 동작대로 119 (사당동),37.4872326,126.9818837,891013,1,0000000486
올페이,Password123!,01000000487,롯데리아 센트럴시티점,FASTFOOD,0262821125,서울 서초구 신반포로 176 (반포동),37.50428126,127.0045667,891013,1,0000000487
올페이,Password123!,01000000488,롯데리아 수유역점,FASTFOOD,029023894,서울 강북구 도봉로 336 (번동),37.63768805,127.0257036,891013,1,0000000488
올페이,Password123!,01000000489,롯데리아 엔제리너스압구정2호점,FASTFOOD,027092044,"서울 강남구 압구정로28길 9, 지상 1층 (신사동)",37.52598457,127.0278948,891013,1,0000000489
올페이,Password123!,01000000490,롯데리아 영등포점,FASTFOOD,0226371117,서울 영등포구 경인로 853 (영등포동3가),37.51692041,126.9073945,891013,1,0000000490
올페이,Password123!,01000000491,롯데리아 응암오거리점,FASTFOOD,023089341,서울 은평구 응암로 177 (응암동),37.5879034,126.9163618,891013,1,0000000491
올페이,Password123!,01000000492,롯데리아 청담店(直),FASTFOOD,0234472268,서울 강남구 선릉로 806 (청담동),37.52389259,127.039649,891013,1,0000000492
올페이,Password123!,01000000493,롯데리아 코엑스몰店,FASTFOOD,0234539805,"서울 강남구 영동대로 513, 기존컨벤션센터 지하1층 D-109호 (삼성동, 코엑스)",37.51201831,127.059037,891013,1,0000000493
올페이,Password123!,01000000494,롯데리아 크리스피크림 코엑스몰점,BAKERY,027091058,"서울 강남구 영동대로 513 (삼성동, 코엑스)",37.51201831,127.059037,891013,1,0000000494
올페이,Password123!,01000000495,롯데리아63시티점,FASTFOOD,027841173,"서울 영등포구 63로 50, 지하1층 (여의도동, 63한화생명빌딩)",37.51957619,126.9398376,891013,1,0000000495
올페이,Password123!,01000000496,롯데리아Angerl-i,FASTFOOD,027901069,"서울 동대문구 왕산로 19, 1층 (신설동, 제일화재빌딩)",37.57670678,127.0255173,891013,1,0000000496
올페이,Password123!,01000000497,롯데리아TGIF논현점,WESTERN,025127213,서울 강남구 도산대로 336 (논현동),37.52266692,127.0388965,891013,1,0000000497
올페이,Password123!,01000000498,롯데리아TGIF대학로,WESTERN,027431322,서울 종로구 대학로 130 (동숭동),37.58287537,127.0021164,891013,1,0000000498
올페이,Password123!,01000000499,롯데리아TGIF신림점,WESTERN,028723143,"서울 관악구 신림로 350, 지상 2층 (신림동)",37.48551085,126.9299661,891013,1,0000000499
올페이,Password123!,01000000500,롯데리아TGIF신촌점,WESTERN,0231411671,"서울 서대문구 연세로 13, 지상 10층 (창천동)",37.556699,126.9365432,891013,1,0000000500
올페이,Password123!,01000000501,롯데리아TGIF여의도점,WESTERN,027840026,"서울 영등포구 국제금융로 86, 지하1층 (여의도동, 롯데캐슬IVY)",37.52021271,126.9317967,891013,1,0000000501
올페이,Password123!,01000000502,롯데리아TGIF잠실점,WESTERN,0264130323,"서울 송파구 올림픽로 240, 1/2층 (잠실동, 롯데월드쇼핑몰)",37.5114818,127.0982241,891013,1,0000000502
올페이,Password123!,01000000503,롯데리아신촌연세로점,FASTFOOD,023130450,"서울 서대문구 연세로 28, 지상 1,4층 (창천동)",37.55808968,126.9371172,891013,1,0000000503
올페이,Password123!,01000000504,롯데리아월드스포츠점,WESTERN,0234317166,"서울 송파구 올림픽로 240, 롯데월드스포츠센터 S-102 (잠실동)",37.5114818,127.0982241,891013,1,0000000504
올페이,Password123!,01000000505,롯데리아크리스피크림홈플러스영등포점,BAKERY,027091054,"서울 영등포구 당산로 42, 2층 (문래동3가, 홈플러스영등포점)",37.51831884,126.8959479,891013,1,0000000505
올페이,Password123!,01000000506,루이쌍끄,GENERAL,025471259,"서울 강남구 선릉로157길 33, 2층 (신사동)",37.52629404,127.0370523,891013,1,0000000506
올페이,Password123!,01000000507,룸서비스딜리버리,GENERAL,0211111111,서울특별시 강남구 선릉로 334 105호(대치동),37.49958703,127.0516318,891013,1,0000000507
올페이,Password123!,01000000508,르마르쉐베이커리,GENERAL,0211111111,"서울 강서구 강서로56길 56 , 101동 1층 104,105호 (등촌동, 메종드남광)",37.55920273,126.8418312,891013,1,0000000508
올페이,Password123!,01000000509,리북방마포,KOREAN,0211111111,서울특별시 마포구 마포대로1길 16 2층,37.53972587,126.9431455,891013,1,0000000509
올페이,Password123!,01000000510,리앤푸드,WESTERN,025675098,서울 강남구 도산대로45길 10-4 (신사동),37.52316081,127.0361667,891013,1,0000000510
올페이,Password123!,01000000511,리클랜,GENERAL,0234283355,서울특별시 중구 통일로 120 농협중앙회신관지하1층,37.56576509,126.9676375,891013,1,0000000511
올페이,Password123!,01000000512,마니사 케밥인,JAPANESE,0263405359,"서울 광진구 아차산로 221, 1층 (화양동)",37.54101946,127.0682007,891013,1,0000000512
올페이,Password123!,01000000513,마더,WESTERN,0200000000,서울특별시 강남구 논현로132길 5 1층,37.51499348,127.0309161,891013,1,0000000513
올페이,Password123!,01000000514,마마쿡 고덕점,OTHER,0211111111,"서울특별시 강동구 아리수로50길 50 지1층 B110,B111,B112호",37.56146516,127.1506284,891013,1,0000000514
올페이,Password123!,01000000515,마사타코,GENERAL,025456915,서울특별시 강남구 압구정로10길 30-8 1층,37.52199991,127.0217403,891013,1,0000000515
올페이,Password123!,01000000516,마산종가아구찜,KOREAN,023885979,"서울특별시 은평구 연서로 191 1,2층",37.61594275,126.9180551,891013,1,0000000516
올페이,Password123!,01000000517,마성떡볶이,GENERAL,0215228633,서울특별시 광진구 자양번영로 45 3층,37.53372712,127.0756396,891013,1,0000000517
올페이,Password123!,01000000518,마스터다이닝 화육계,GENERAL,0200000000,"서울특별시 중구 을지로14길 21 1,2층",37.56522508,126.9922114,891013,1,0000000518
올페이,Password123!,01000000519,마작골,KOREAN,0222310390,서울특별시 중구 퇴계로88길 21 1층1호,37.56457994,127.021084,891013,1,0000000519
올페이,Password123!,01000000520,마카오도우라오훠궈,CHINESE,0263767777,서울특별시 중구 명동길 55 2층,37.56414837,126.98538,891013,1,0000000520
올페이,Password123!,01000000521,마케마케,GENERAL,025997174,서울특별시 서초구 사평대로 122 지상1층,37.49961058,126.9978874,891013,1,0000000521
올페이,Password123!,01000000522,마포옥하우스,KOREAN,027166661,서울 마포구 토정로 312 (용강동),37.53987421,126.9433512,891013,1,0000000522
올페이,Password123!,01000000523,막내푸드,KOREAN,027360824,"서울 종로구 종로 19, 1층 125호 (종로1가, 르메이에르종로타운)",37.57084629,126.9799236,891013,1,0000000523
올페이,Password123!,01000000524,만점족,KOREAN,027534755,서울 중구 서소문로 134-7 (태평로2가),37.56326031,126.976014,891013,1,0000000524
올페이,Password123!,01000000525,만점족,CHINESE,0226365891,서울특별시 중구 서소문로 134-7 (태평로2가),37.56326031,126.976014,891013,1,0000000525
올페이,Password123!,01000000526,만포제육,KOREAN,0211111111,서울특별시 마포구 양화로 25 지하1호,37.5490936,126.9120034,891013,1,0000000526
올페이,Password123!,01000000527,맘스터치,FASTFOOD,0232902635,서울특별시 성북구 안암로 145 .,37.59103276,127.0301287,891013,1,0000000527
올페이,Password123!,01000000528,맛난세상,KOREAN,027030019,"서울 마포구 토정로37길 47, (염리동)",37.54291403,126.946999,891013,1,0000000528
올페이,Password123!,01000000529,맛있는이야기 노랑저고리,KOREAN,025345300,"서울 서초구 서초대로73길 9, 601호 (서초동, 타임빌딩)",37.49830822,127.0252278,891013,1,0000000529
올페이,Password123!,01000000530,맛있는이야기 담,KOREAN,025988187,"서울 서초구 남부순환로 2406, 서예박물관 1층 (서초동, 예술의전당)",37.47828494,127.0119608,891013,1,0000000530
올페이,Password123!,01000000531,맛족발야시장 은평뉴타운,KOREAN,023554969,서울특별시 은평구 통일로 1020 L-106 L-107,37.63339143,126.9177977,891013,1,0000000531
올페이,Password123!,01000000532,맥13 (Mag13),KOREAN,0200000000,"서울특별시 관악구 남부순환로 1919 , 1층(봉천동)",37.4777154,126.9625952,891013,1,0000000532
올페이,Password123!,01000000533,맥인베스트코리아(엄마손푸드 가산점),KOREAN,07073580904,"서울특별시 금천구 디지털로10길 78 2층 217,222호",37.47453211,126.8896133,891013,1,0000000533
올페이,Password123!,01000000534,머노까머나(MANOKAMANA),WESTERN,023384343,"서울 서대문구 연세로11길 13, 2층 (창천동)",37.55882985,126.9360255,891013,1,0000000534
올페이,Password123!,01000000535,메뉴투어,GENERAL,0211221111,서울특별시 용산구 한남대로20길 36 B1층,37.53484576,127.0087963,891013,1,0000000535
올페이,Password123!,01000000536,메밀애찬,KOREAN,0200000000,서울특별시 동대문구 고미술로 81 1층(답십리동),37.56561436,127.055705,891013,1,0000000536
올페이,Password123!,01000000537,메이더 제임스시카고피자,FASTFOOD,0220383182,"서울 마포구 어울마당로 122-1, 1층 (서교동)",37.55543754,126.9239301,891013,1,0000000537
올페이,Password123!,01000000538,메이드 인 33,CHINESE,0264568911,"서울 중구 한강대로 416, 지하1층 27-2호 (남대문로5가, 서울스퀘어)",37.55552188,126.9737628,891013,1,0000000538
올페이,Password123!,01000000539,메종드리즈팡,BAKERY,0211111111,서울특별시 서대문구 이화여대길 81 1층(대현동),37.55895643,126.943944,891013,1,0000000539
올페이,Password123!,01000000540,멕시칼리,GENERAL,07076231707,서울특별시 광진구 능동로36길 181 코지빌 101호,37.55272398,127.0883913,891013,1,0000000540
올페이,Password123!,01000000541,명가원설농탕,GENERAL,0226930055,"서울 강서구 강서로 195, 1032-20 (화곡동)",37.54345981,126.8381606,891013,1,0000000541
올페이,Password123!,01000000542,명동KOREAN,KOREAN,029989333,"서울특별시 강북구 한천로 1156 (수유동, 상민빌딩)",37.64723863,127.0169461,891013,1,0000000542
올페이,Password123!,01000000543,명성인터내셔널 던킨,BAKERY,0237899447,서울특별시 중구 세종대로 55 지하 1층,37.56158018,126.9749551,891013,1,0000000543
올페이,Password123!,01000000544,명인갈비 미아점,GENERAL,029869292,서울특별시 강북구 솔샘로 327 1층 101호(미아동),37.61752857,127.0284795,891013,1,0000000544
올페이,Password123!,01000000545,명인밥상,KOREAN,024093355,"서울 송파구 송이로 157, 지하1층 (가락동)",37.49318866,127.1252367,891013,1,0000000545
올페이,Password123!,01000000546,모두락,GENERAL,07074207497,"서울특별시 강서구 하늘길 70 항공지원센터 1층 L103-2호,3층",37.56199748,126.7966185,891013,1,0000000546
올페이,Password123!,01000000547,모스버거코리아 방배점,FASTFOOD,07047865835,서울특별시 서초구 방배로 92 1층,37.48264229,126.9972102,891013,1,0000000547
올페이,Password123!,01000000548,모스버거코리아 센트럴점,FASTFOOD,0234782585,"서울 서초구 신반포로 176, 1층 110호 (반포동, 센트럴시티)",37.50428126,127.0045667,891013,1,0000000548
올페이,Password123!,01000000549,모스버거코리아 신촌역점,FASTFOOD,023131119,서울특별시 서대문구 신촌로 109 1층 102호,37.55589524,126.9381479,891013,1,0000000549
올페이,Password123!,01000000550,모스버거코리아 익스프레스,FASTFOOD,025425972,서울특별시 강남구 학동로 339 세한빌딩 1층,37.51714049,127.0401837,891013,1,0000000550
올페이,Password123!,01000000551,모스버거코리아 홈플러스잠실점,FASTFOOD,0222038898,서울특별시 송파구 올림픽로35가길 16 홈플러스잠실점 1층,37.5161377,127.1030785,891013,1,0000000551
올페이,Password123!,01000000552,모자이크 베이커리,GENERAL,0200000000,"서울 종로구 북촌로4길 8, 1층 (재동)",37.57908252,126.9856696,891013,1,0000000552
올페이,Password123!,01000000553,모자이크 베이커리,GENERAL,0211111111,서울특별시 종로구 율곡로 221-12 1층(이화동),37.57670819,127.0034518,891013,1,0000000553
올페이,Password123!,01000000554,목멱산방,KOREAN,023184790,서울특별시 중구 퇴계로20길 71 1층,37.55811319,126.9868874,891013,1,0000000554
올페이,Password123!,01000000555,몬스터플레이스,GENERAL,0200000000,서울특별시 동대문구 천장산로7길 8 3층,37.59864419,127.0573855,891013,1,0000000555
올페이,Password123!,01000000556,무궁화대교,JAPANESE,023385536,"서울 마포구 독막로19길 43, 1층 (상수동)",37.54891572,126.9237726,891013,1,0000000556
올페이,Password123!,01000000557,무티재(Mutti),WESTERN,025180555,서울 강남구 선릉로148길 48-9 (청담동),37.52233957,127.043513,891013,1,0000000557
올페이,Password123!,01000000558,무한리필몽블리명동점,KOREAN,0200000000,서울특별시 중구 명동8나길 9 3층 (충무로1가),37.56124997,126.9844407,891013,1,0000000558
올페이,Password123!,01000000559,미고당바이팥고당(밀가옥),GENERAL,027201379,"서울특별시 성북구 삼선교로16길 116 2층,12층",37.5830533,127.0100707,891013,1,0000000559
올페이,Password123!,01000000560,미남옥,GENERAL,025495553,서울특별시 강남구 언주로153길 12 1층,37.52295244,127.0321926,891013,1,0000000560
올페이,Password123!,01000000561,미라클브루어리 강남역점,WESTERN,0264486110,"서울특별시 강남구 테헤란로1길 28-3 지상1,2층(역삼동)",37.50047885,127.0276033,891013,1,0000000561
올페이,Password123!,01000000562,미래창조 등촌샤브칼국수,GENERAL,027122522,"서울 은평구 진흥로 43, 1층 (역촌동)",37.60113862,126.9197907,891013,1,0000000562
올페이,Password123!,01000000563,미르스타푸드,WESTERN,021231111,서울특별시 관악구 남부순환로 1913 2층,37.47796991,126.9620151,891013,1,0000000563
올페이,Password123!,01000000564,미미고 고덕역점,GENERAL,0269568821,서울특별시 강동구 고덕로 262 1층 103호,37.55462776,127.1545944,891013,1,0000000564
올페이,Password123!,01000000565,미미미가든,GENERAL,025188765,"서울특별시 강남구 도산대로 417 지하1층,자하2층,지하3층",37.52382299,127.0411219,891013,1,0000000565
올페이,Password123!,01000000566,미셸푸드 그랑미셸 은평성모,GENERAL,0222588514,서울특별시 은평구 통일로 1021 지2층 B2AM01호,37.63352236,126.9162606,891013,1,0000000566
올페이,Password123!,01000000567,미셸푸드롤링핀가톨릭대학교서울성모병원점,BAKERY,0222588514,서울특별시 서초구 반포대로 222 지하1층,37.50038692,127.0055388,891013,1,0000000567
올페이,Password123!,01000000568,미스터푸드,KOREAN,0281111111,"서울특별시 강동구 천중로 176 ,",37.54093558,127.1395169,891013,1,0000000568
올페이,Password123!,01000000569,미스포아이,GENERAL,0234739400,서울특별시 서초구 서초대로78길 38 1층,37.4945413,127.0282269,891013,1,0000000569
올페이,Password123!,01000000570,미진,KOREAN,027321954,"서울 종로구 종로 19 (종로1가.116-2호,117호종로1가르메이에",37.57084629,126.9799236,891013,1,0000000570
올페이,Password123!,01000000571,미플,KOREAN,023134300,"서울 서대문구 신촌로 109, 지하2층 (창천동, 신촌르메이에르타운5)",37.55589524,126.9381479,891013,1,0000000571
올페이,Password123!,01000000572,믹시티,GENERAL,07048096090,서울특별시 중구 다산로40길 14 (신당동),37.56381807,127.016749,891013,1,0000000572
올페이,Password123!,01000000573,바게트케이,BAKERY,025679501,서울특별시 강남구 테헤란로34길 21-10 1층,37.50029558,127.0414469,891013,1,0000000573
올페이,Password123!,01000000574,바나바에프앤비 한양화로 본점,KOREAN,025638592,"서울특별시 강남구 봉은사로 632 , 1층",37.51475495,127.0645075,891013,1,0000000574
올페이,Password123!,01000000575,바나바에프앤비한양화로분점,KOREAN,0211111111,"서울특별시 강남구 봉은사로 634 1층(삼성동, 20TOWER)",37.51476319,127.064676,891013,1,0000000575
올페이,Password123!,01000000576,바닷가작은부엌 덕수궁점,KOREAN,027729467,"서울 중구 덕수궁길 7, 4층 (태평로2가, 오천회관빌딩)",37.5647103,126.9763546,891013,1,0000000576
올페이,Password123!,01000000577,바닷가작은부엌경희궁점,KOREAN,027397967,"서울 종로구 새문안로 38, 5층 (신문로2가)",37.56836519,126.9697875,891013,1,0000000577
올페이,Password123!,01000000578,바램 라무진 공덕역점,KOREAN,027166235,서울특별시 마포구 새창로 26-1 2층,37.54171309,126.9528491,891013,1,0000000578
올페이,Password123!,01000000579,바램 라무진공덕점,KOREAN,027116235,"서울특별시 마포구 백범로 152 ,102동 21호 (공덕동,공덕파크자이)",37.54500454,126.9476772,891013,1,0000000579
올페이,Password123!,01000000580,바램 화와규,KOREAN,027126235,"서울특별시 마포구 백범로 152 ,102동 15호 (공덕동,공덕파크자이아파트 상가)",37.54500454,126.9476772,891013,1,0000000580
올페이,Password123!,01000000581,바이오비즈 이나니와요스케 시청점,KOREAN,027729994,"서울 중구 을지로 6, 1층 101호 (을지로1가, 재능빌딩)",37.56546154,126.9791783,891013,1,0000000581
올페이,Password123!,01000000582,반수우안,GENERAL,0211111111,"서울특별시 종로구 대학로8가길 79 , 2층(동숭동, 효진빌딩)",37.58250768,127.0035585,891013,1,0000000582
올페이,Password123!,01000000583,반촌밥상 청국장과 보리밥,KOREAN,0234143313,"서울특별시 강남구 광평로46길 5-5 지상1,2층(수서동)",37.48612061,127.0993291,891013,1,0000000583
올페이,Password123!,01000000584,반포원,KOREAN,025340137,"서울 서초구 사평대로 108, 4층 5층 (반포동, 반포골프백화점)",37.4989359,126.9965383,891013,1,0000000584
올페이,Password123!,01000000585,밥앤코(타코부기),WESTERN,0211111111,서울특별시 송파구 중대로16길 12-1 1층101호,37.49587802,127.1258302,891013,1,0000000585
올페이,Password123!,01000000586,방이진대감,KOREAN,024162472,"서울특별시 송파구 오금로13길 6 , 1층 (방이동, 오선빌딩)",37.51308344,127.1084544,891013,1,0000000586
올페이,Password123!,01000000587,배꼽외식산업,KOREAN,0236653323,서울특별시 강서구 강서로 385 208호,37.56013032,126.838359,891013,1,0000000587
올페이,Password123!,01000000588,배꼽집문정,KOREAN,0269561005,서울특별시 송파구 법원로11길 7 C동 지하2층 B215호,37.4852993,127.1193914,891013,1,0000000588
올페이,Password123!,01000000589,백석,KOREAN,024239292,"서울특별시 송파구 올림픽로 96 103호(잠실동,동신빌딩)",37.5114594,127.0812136,891013,1,0000000589
올페이,Password123!,01000000590,버거파크,FASTFOOD,029553005,서울특별시 성북구 동소문로22길 56 .,37.5906378,127.0184204,891013,1,0000000590
올페이,Password123!,01000000591,버터핑거팬케익스코리아 L7명동점,WESTERN,0312810654,"서울 중구 퇴계로 137 , L7명동 2층 (충무로2가)",37.56139029,126.9869813,891013,1,0000000591
올페이,Password123!,01000000592,범선(한촌설렁탕),KOREAN,0234584025,서울특별시 영등포구 여의대로 108 B2층(파크원타워2),37.52705396,126.9278476,891013,1,0000000592
올페이,Password123!,01000000593,벚꽃,JAPANESE,023365741,"서울특별시 마포구 월드컵로15길 37 , 1층",37.55528864,126.9083512,891013,1,0000000593
올페이,Password123!,01000000594,베이직컴퍼니,WESTERN,0211111111,서울특별시 용산구 대사관로34길 39 1층,37.53166194,127.0059175,891013,1,0000000594
올페이,Password123!,01000000595,베이징코야,CHINESE,023135292,"서울 종로구 율곡로2길 25, 지하층 1층 연합미디어센터 (수송동)",37.57436546,126.9805106,891013,1,0000000595
올페이,Password123!,01000000596,베이징코야강남점,CHINESE,027335292,"서울 강남구 논현로86길 20, 지상 1층 (역삼동)",37.49987045,127.0391759,891013,1,0000000596
올페이,Password123!,01000000597,베케이알 버거킹 목동역점,FASTFOOD,0226020332,"서울 양천구 오목로 238  1,2층(신정동)",37.52589874,126.8639488,891013,1,0000000597
올페이,Password123!,01000000598,벤베누토,WESTERN,0260110580,서울특별시 성북구 동소문로20나길 39 2층,37.5927528,127.0185486,891013,1,0000000598
올페이,Password123!,01000000599,벽돌해피푸드한남점,CHINESE,027978586,서울특별시 용산구 이태원로 238 지하1층(한남동),37.53592119,126.9999171,891013,1,0000000599
올페이,Password123!,01000000600,벽제,KOREAN,024155522,서울 송파구 양재대로71길 1-4 (방이동),37.51000469,127.1262133,891013,1,0000000600
올페이,Password123!,01000000601,벽제타워팰리스,KOREAN,0220583535,"서울 강남구 언주로30길 26, 1층 (도곡동, 타워팰리스스포츠클럽S동지상)",37.48773169,127.0524346,891013,1,0000000601
올페이,Password123!,01000000602,보나비,KOREAN,0221555777,서울 강남구 테헤란로28길 32 (역삼동),37.49905098,127.0392431,891013,1,0000000602
올페이,Password123!,01000000603,보돌미역 서여의도점,KOREAN,027805212,"서울특별시 영등포구 국회대로68길 24 1층 101,102호(여의도동, 라포르테블랑여의도)",37.5282482,126.9201282,891013,1,0000000603
올페이,Password123!,01000000604,보돌에프엔비 보돌미역 종로타워점,KOREAN,027251391,서울특별시 종로구 종로 51 지하1층 101호,37.5707427,126.9836089,891013,1,0000000604
올페이,Password123!,01000000605,보두코리아 블랙티드 강남지점,GENERAL,0200000000,서울특별시 강남구 강남대로 438 2층 211호 (스타플렉스),37.50150831,127.0263451,891013,1,0000000605
올페이,Password123!,01000000606,보리에 대도식당,KOREAN,027149772,"서울 마포구 마포대로 19 , 지하1층 1호, 지하1층 4호(신화빌딩) (마포동)",37.53903133,126.9443193,891013,1,0000000606
올페이,Password123!,01000000607,보성갈비,GENERAL,024863396,"서울특별시 강동구 양재대로 1339 1층 12,13,14,25호",37.52595215,127.1350097,891013,1,0000000607
올페이,Password123!,01000000608,보성커머스 당산역지점,GENERAL,0200000000,서울특별시 영등포구 당산로 229 237-007호 점포(당산동6가.당산역),37.53524421,126.9029464,891013,1,0000000608
올페이,Password123!,01000000609,보성파워텍 문래역지점,BAKERY,024125469,서울특별시 영등포구 당산로 지하28 235-102호,37.52641052,126.8962612,891013,1,0000000609
올페이,Password123!,01000000610,보우앤파트너스 카소미야가로수길본점,JAPANESE,025151907,서울특별시 강남구 논현로175길 101-5 1층,37.52246929,127.0213148,891013,1,0000000610
올페이,Password123!,01000000611,본궁 문배동육칼 본점,KOREAN,027136204,서울 용산구 백범로90길 50 (문배동),37.53662782,126.9703247,891013,1,0000000611
올페이,Password123!,01000000612,본비반트브레드박스청담점,BAKERY,025490595,서울 강남구 삼성로147길 34 1층  지상 본비반트 (청담동),37.52080894,127.0465878,891013,1,0000000612
올페이,Password123!,01000000613,본푸드시스템 본까스 황금의제국점,KOREAN,07043513633,서울 구로구 디지털로26길 123 (구로동),37.48314302,126.8977446,891013,1,0000000613
올페이,Password123!,01000000614,봄담아 마곡점,KOREAN,0211111111,서울특별시 강서구 마곡중앙로 59-17 1층 118~122호,37.55887654,126.8248074,891013,1,0000000614
올페이,Password123!,01000000615,봉추푸드시스템 잠실새내점,KOREAN,024156981,"서울특별시 송파구 올림픽로8길 6 , 2층 (잠실동)",37.51112466,127.0798886,891013,1,0000000615
올페이,Password123!,01000000616,부다스벨리 신세계,GENERAL,07050145701,"서울 서초구 사평대로 205, 센트럴시티파미에스테이션 1층 에프피 115호 (반포동)",37.50445057,127.0077406,891013,1,0000000616
올페이,Password123!,01000000617,부들부들,KOREAN,025369232,서울특별시 동작구 사당로 307-8 지층,37.48579326,126.9815694,891013,1,0000000617
올페이,Password123!,01000000618,부뚜막한상차림,KOREAN,027470607,서울특별시 종로구 율곡로 219-1 B1층,37.57636534,127.0032548,891013,1,0000000618
올페이,Password123!,01000000619,부일식당,KOREAN,0226407676,"서울 강서구 발산로 40, 청과동 3층 503-1 (외발산동)",37.55569715,126.8216357,891013,1,0000000619
올페이,Password123!,01000000620,부일씨앤디,CHINESE,027065292,"서울 마포구 토정로37길 17 , 1,2층 (용강동)",37.54114368,126.9448163,891013,1,0000000620
올페이,Password123!,01000000621,부케서울,KOREAN,0222631225,서울특별시 중구 퇴계로63길 10 1층 101호(을지로7가),37.5649181,127.0087667,891013,1,0000000621
올페이,Password123!,01000000622,불이아역삼점,CHINESE,025566689,서울특별시 강남구 논현로 514 2층,37.50249481,127.0364799,891013,1,0000000622
올페이,Password123!,01000000623,브라더스스토어 일월분식 한경련점,KOREAN,0272378336,서울특별시 영등포구 여의대로 24 B 107호,37.52169322,126.9200453,891013,1,0000000623
올페이,Password123!,01000000624,브라더스스토어 패티바이번 브라이튼빌딩여의도점,FASTFOOD,0220619464,서울특별시 영등포구 국제금융로 39 지하1층 117호,37.52429155,126.9293386,891013,1,0000000624
올페이,Password123!,01000000625,브라더스스토어일월분식nc백화점강서점,KOREAN,0259150128,서울특별시 강서구 강서로56길 17 지하1층 일부호,37.55996108,126.8405147,891013,1,0000000625
올페이,Password123!,01000000626,브라운에프엔비,GENERAL,0263410049,서울특별시 용산구 청파로 122 농협(농산물백화점) 7층 (한강로2가),37.53317459,126.9647332,891013,1,0000000626
올페이,Password123!,01000000627,브라운에프엔비,GENERAL,0216886795,서울특별시 강남구 테헤란로 508 1층,37.50682499,127.0579858,891013,1,0000000627
올페이,Password123!,01000000628,브라운에프엔비,GENERAL,07058999968,"서울 구로구 디지털로31길 38-21, 705호 (구로동, 이앤씨벤처드림타워3차)",37.48652247,126.8937124,891013,1,0000000628
올페이,Password123!,01000000629,브라운에프엔비 농심본사점,GENERAL,028208865,서울특별시 동작구 여의대방로 112 1층,37.49637303,126.9188484,891013,1,0000000629
올페이,Password123!,01000000630,브라운에프엔비(서울대공동연구소),GENERAL,0215770000,"서울 관악구 관악로 1, 4층 (신림동, 서울대학교)",37.46818354,126.9569657,891013,1,0000000630
올페이,Password123!,01000000631,브랜뉴푸드 느린물고기,KOREAN,028827982,서울특별시 관악구 남부순환로226길 13 2층,37.47993577,126.9539271,891013,1,0000000631
올페이,Password123!,01000000632,브랜드네트워크코리아 레스토랑,GENERAL,0222058817,"서울특별시 강남구 테헤란로 610 ,지하1층 GLAD대치호텔",37.50883667,127.0645322,891013,1,0000000632
올페이,Password123!,01000000633,브레댄코 을지로 입구역점,BAKERY,021001111,서울특별시 중구 을지로 지하42 을지로1가 울지로입구역,37.56631767,126.9804104,891013,1,0000000633
올페이,Password123!,01000000634,브로트아트,BAKERY,027850466,서울특별시 영등포구 국제금융로7길 3 101호,37.5225627,126.9312022,891013,1,0000000634
올페이,Password123!,01000000635,브로트아트청담씨엠점,BAKERY,025450766,서울특별시 강남구 압구정로 412 지하1층,37.52714239,127.0418709,891013,1,0000000635
올페이,Password123!,01000000636,브로플래닝,CHINESE,024246869,서울특별시 송파구 올림픽로34길 18 2층(방이동),37.51498335,127.1109632,891013,1,0000000636
올페이,Password123!,01000000637,브이앤에프앤씨,KOREAN,025679288,서울특별시 강남구 강남대로84길 36 1층,37.49712047,127.0315099,891013,1,0000000637
올페이,Password123!,01000000638,비스포크푸드,GENERAL,07044203960,서울특별시 용산구 독서당로 39 107-2호,37.53160053,127.007,891013,1,0000000638
올페이,Password123!,01000000639,비앤어스 평양일미 청담점,KOREAN,025457666,서울특별시 강남구 선릉로152길 15 지하1층,37.52437466,127.0407038,891013,1,0000000639
올페이,Password123!,01000000640,비앤케이푸드,KOREAN,024159284,"서울 송파구 양재대로71길 7 (방이동,1층)",37.51034179,127.1257928,891013,1,0000000640
올페이,Password123!,01000000641,비에쓰마트구나홀딱반한닭강남역점,GENERAL,0211111111,"서울특별시 서초구 강남대로65길 1 1,2층(서초동, 효봉빌딩)",37.50050416,127.0259,891013,1,0000000641
올페이,Password123!,01000000642,비에이치씨 삼성점,GENERAL,0260846330,"서울특별시 강남구 영동대로 611 1,2층",37.51472501,127.0594057,891013,1,0000000642
올페이,Password123!,01000000643,비엔에스푸드 보돌미역 강동ECT점,KOREAN,0263778332,서울특별시 강동구 천호대로 1077 B1층 105호,37.53725183,127.131426,891013,1,0000000643
올페이,Password123!,01000000644,비엔에스푸드보돌미역여의도KTB점,KOREAN,027801391,서울특별시 영등포구 여의대로 66 KTB 1층(여의도동),37.52454033,126.9237183,891013,1,0000000644
올페이,Password123!,01000000645,비케이볏짚직화구이,KOREAN,0200000000,서울특별시 동대문구 장한로26가길 29 1층,37.57052269,127.0715904,891013,1,0000000645
올페이,Password123!,01000000646,비케이알 - 버거킹 명일SK점,FASTFOOD,024260332,서울 강동구 고덕로 168,37.55449171,127.1440355,891013,1,0000000646
올페이,Password123!,01000000647,비케이알 구로구청점,FASTFOOD,0232850332,"서울 구로구 가마산로 250, 1층 (구로동, 광진빌딩)",37.49480511,126.888677,891013,1,0000000647
올페이,Password123!,01000000648,비케이알 군자능동점,FASTFOOD,07074626703,서울특별시 광진구 능동로 245 1층,37.55223345,127.0765371,891013,1,0000000648
올페이,Password123!,01000000649,비케이알 버거킹 가산이앤씨,FASTFOOD,07074388601,서울특별시 금천구 디지털로9길 46 101호,37.48005863,126.8871017,891013,1,0000000649
올페이,Password123!,01000000650,비케이알 버거킹 마곡점,FASTFOOD,07074626739,서울특별시 강서구 마곡동로 56 1층,37.56002738,126.833803,891013,1,0000000650
올페이,Password123!,01000000651,비케이알 버거킹 먹골역점,FASTFOOD,07074626725,서울특별시 중랑구 동일로 890 1층,37.60991562,127.0781891,891013,1,0000000651
올페이,Password123!,01000000652,비케이알 버거킹 미아역점,FASTFOOD,029880332,서울특별시 강북구 도봉로 188 1층,37.62563685,127.0267976,891013,1,0000000652
올페이,Password123!,01000000653,비케이알 버거킹 박석고개SK,FASTFOOD,07074626723,서울특별시 은평구 통일로 945 갈현동,37.62711773,126.9192052,891013,1,0000000653
올페이,Password123!,01000000654,비케이알 버거킹 상암점,FASTFOOD,07074626718,서울특별시 마포구 월드컵북로 344 1층,37.57650185,126.8938962,891013,1,0000000654
올페이,Password123!,01000000655,비케이알 버거킹 서교동사거,FASTFOOD,023223199,"서울 마포구 양화로 100, 1층 2층 (서교동)",37.55269903,126.9187068,891013,1,0000000655
올페이,Password123!,01000000656,비케이알 버거킹 신월점,FASTFOOD,07074626708,서울특별시 양천구 화곡로 64 1층,37.53904794,126.8289736,891013,1,0000000656
올페이,Password123!,01000000657,비케이알 버거킹 왕십리센트,FASTFOOD,07074388625,서울특별시 성동구 왕십리로 410 1층,37.56660296,127.0240825,891013,1,0000000657
올페이,Password123!,01000000658,비케이알 버거킹 종암점,FASTFOOD,07074626709,서울특별시 성북구 종암로 123 1층,37.60101534,127.0331612,891013,1,0000000658
올페이,Password123!,01000000659,비케이알 버거킹 혜화역점,FASTFOOD,07074626726,서울특별시 종로구 동숭길 148 1층,37.58352993,127.00215,891013,1,0000000659
올페이,Password123!,01000000660,비케이알 버거킹 홍제역점,GENERAL,023910332,서울특별시 서대문구 통일로 464 .,37.58995307,126.9432277,891013,1,0000000660
올페이,Password123!,01000000661,비케이알 버거킹서여의도점,FASTFOOD,027800993,"서울 영등포구 국회대로70길 23, 1층 용산빌딩 일부 (여의도동)",37.52888798,126.921,891013,1,0000000661
올페이,Password123!,01000000662,비케이알_버거킹,FASTFOOD,15448667,서울 구로구 디지털로26길 72 (구로동),37.48067689,126.8960564,891013,1,0000000662
올페이,Password123!,01000000663,비케이알버거킹공덕역점,FASTFOOD,027018355,서울특별시 마포구 마포대로 144 1층일부,37.54700134,126.9537568,891013,1,0000000663
올페이,Password123!,01000000664,비케이에프,KOREAN,024541119,서울특별시 광진구 긴고랑로 63 중곡동,37.5619591,127.0833514,891013,1,0000000664
올페이,Password123!,01000000665,빌리엔젤 코엑스몰,BAKERY,025126257,"서울 강남구 영동대로 513, 코에스몰 B003호 (삼성동, 코엑스)",37.51201831,127.059037,891013,1,0000000665
올페이,Password123!,01000000666,빌텍 동소문기숙사점,GENERAL,0220522854,서울특별시 성북구 동소문로13길 73 지하1층,37.59422431,127.0131125,891013,1,0000000666
올페이,Password123!,01000000667,빠빠킹롯데스타시티,GENERAL,0200000000,서울특별시 광진구 능동로 92 10층,37.53899973,127.0712144,891013,1,0000000667
올페이,Password123!,01000000668,빵굽는사람들,BAKERY,0200000000,서울특별시 도봉구 마들로11길 20 .,37.65576275,127.0528248,891013,1,0000000668
올페이,Password123!,01000000669,빵빵,BAKERY,0211111111,서울특별시 동대문구 경희대로 4-1 1~4층(회기동),37.59198202,127.0525543,891013,1,0000000669
올페이,Password123!,01000000670,뽀모도로,WESTERN,025511313,"서울 강남구 영동대로 513, 코엑스 (삼성동, 코엑스)",37.51201831,127.059037,891013,1,0000000670
올페이,Password123!,01000000671,뽕족 강남역본점,KOREAN,025569279,서울특별시 강남구 테헤란로4길 15 1층,37.49739645,127.0302448,891013,1,0000000671
올페이,Password123!,01000000672,뽕족 잠실점,KOREAN,024239279,서울특별시 송파구 올림픽로32길 21-10 목계빌딩 2층,37.51406016,127.1100817,891013,1,0000000672
올페이,Password123!,01000000673,사람과 사람사이(르브와 종로점),WESTERN,027398208,"서울 종로구 우정국로2길 42  (관철동,4층)",37.56942932,126.9853868,891013,1,0000000673
올페이,Password123!,01000000674,사마르칸트,WESTERN,0222774261,서울 중구 마른내로 159-10 (광희동1가),37.56504883,127.005927,891013,1,0000000674
올페이,Password123!,01000000675,사마르칸트시티원(둘둘치킨 동대문DDP점),GENERAL,0212341234,서울특별시 중구 마른내로 159-4 1층,37.56483717,127.0059571,891013,1,0000000675
올페이,Password123!,01000000676,사운드랩 선릉점,WESTERN,0232881009,"서울특별시 강남구 언주로98길 19 ,1층102호(역삼동)",37.50496836,127.0434535,891013,1,0000000676
올페이,Password123!,01000000677,사토시,JAPANESE,0211111111,서울특별시 강남구 언주로170길 27 2층,37.52678115,127.0359026,891013,1,0000000677
올페이,Password123!,01000000678,산들해(송파지점),KOREAN,024483457,"서울특별시 송파구 위례성대로 6 2층 201호(방이동, 현대토픽스)",37.51684336,127.1131508,891013,1,0000000678
올페이,Password123!,01000000679,산토리니의 아침,BAKERY,07077928800,"서울 강서구 강서로33가길 86, 101동 1층 2호 (화곡동, 프라임팰리스)",37.54513849,126.8361882,891013,1,0000000679
올페이,Password123!,01000000680,살구나무지앤알,GENERAL,0211111111,서울특별시 중구 소월로 20-4 1층,37.5578971,126.9758125,891013,1,0000000680
올페이,Password123!,01000000681,삼미당 신촌점,JAPANESE,0211111111,서울특별시 서대문구 연세로7길 40 1층,37.55787646,126.9346802,891013,1,0000000681
올페이,Password123!,01000000682,삼삼테이블 삼삼하우스,KOREAN,020301111,서울특별시 성동구 왕십리로5길 9-16 2층,37.54659631,127.0440612,891013,1,0000000682
올페이,Password123!,01000000683,삼삼테이블 쏘마이피자,GENERAL,020301111,서울특별시 성동구 서울숲2길 40 1층,37.54640399,127.0429968,891013,1,0000000683
올페이,Password123!,01000000684,삼성숯불갈비,KOREAN,0234912685,"서울특별시 도봉구 도당로 36 106, 107호",37.66121877,127.0350081,891013,1,0000000684
올페이,Password123!,01000000685,삼성KOREAN부페,KOREAN,0211111111,서울특별시 영등포구 여의나루로 77-1 지하1층 B105호(여의도동),37.52439446,126.9271488,891013,1,0000000685
올페이,Password123!,01000000686,삼십칠점오,WESTERN,025113750,서울특별시 강남구 가로수길 31-3 3층,37.52013442,127.0226648,891013,1,0000000686
올페이,Password123!,01000000687,삼양식품 - 라멘에스 가로수길점,GENERAL,025433316,서울 강남구 도산대로11길 25 (신사동),37.51915232,127.0223062,891013,1,0000000687
올페이,Password123!,01000000688,삼원가든,KOREAN,0266703663,서울특별시 강남구 언주로 835 1층,37.52493044,127.0325303,891013,1,0000000688
올페이,Password123!,01000000689,삼원가든,KOREAN,025445351,서울 강남구 언주로 835 (신사동),37.52493044,127.0325303,891013,1,0000000689
올페이,Password123!,01000000690,삼원가든 썬더버드 청담점,KOREAN,0221381377,서울특별시 강남구 압구정로60길 18 1층,37.52618786,127.0417011,891013,1,0000000690
올페이,Password123!,01000000691,삼원가든 투뿔등심 강남역점,KOREAN,025398456,서울특별시 강남구 테헤란로4길 6 2층,37.4976604,127.0295391,891013,1,0000000691
올페이,Password123!,01000000692,삼원가든 투뿔등심 고담삼성,GENERAL,025687710,서울특별시 강남구 테헤란로87길 33 지하1층,37.50982404,127.0579264,891013,1,0000000692
올페이,Password123!,01000000693,삼원가든 투뿔등심 광화문점,KOREAN,0237830607,서울특별시 중구 세종대로 136 지하1층,37.568415,126.978284,891013,1,0000000693
올페이,Password123!,01000000694,삼원가든 투뿔등심 그랑서울,GENERAL,0221587903,서울특별시 종로구 종로 33 지하1층 121호,37.57101418,126.9814357,891013,1,0000000694
올페이,Password123!,01000000695,삼원가든 투뿔등심 논현본점,GENERAL,0234485645,서울특별시 강남구 언주로148길 19 1층 102호,37.52105094,127.0360712,891013,1,0000000695
올페이,Password123!,01000000696,삼원가든 투뿔등심 여의도점,KOREAN,0220883041,서울특별시 영등포구 국제금융로2길 24 지하1층,37.52430525,126.9248321,891013,1,0000000696
올페이,Password123!,01000000697,삼정하누 역삼점,KOREAN,025013834,서울특별시 강남구 봉은사로26길 12 1층(역삼동),37.50607848,127.0330712,891013,1,0000000697
올페이,Password123!,01000000698,삼천리이엔지,CHINESE,0211111111,서울특별시 영등포구 국제금융로6길 42 삼천리이엔지,37.52094211,126.9255737,891013,1,0000000698
올페이,Password123!,01000000699,삼천리이엔지,CHINESE,023683591,"서울 서초구 동광로 78, (방배동)",37.49284639,126.9911023,891013,1,0000000699
올페이,Password123!,01000000700,삼천리이엔지 챠이(chai)797광화문점,CHINESE,0260316797,"서울 종로구 새문안로5길 31, 2층 201호 지상 (도렴동)",37.57296445,126.9743389,891013,1,0000000700
올페이,Password123!,01000000701,삼총사컴퍼니,KOREAN,0211111111,서울특별시 종로구 종로32길 15 1층,37.5702141,127.0011453,891013,1,0000000701
올페이,Password123!,01000000702,삼현스타 스폰티니 신촌점,GENERAL,023638072,서울특별시 서대문구 신촌역로 20 .,37.55836849,126.9431373,891013,1,0000000702
올페이,Password123!,01000000703,삼현스타 스폰티니 압구정로데오점,FASTFOOD,025128072,서울특별시 강남구 선릉로157길 22 .,37.52632627,127.0381836,891013,1,0000000703
올페이,Password123!,01000000704,삼형제김밥 여의도 아이에프씨몰점,KOREAN,0200000000,서울특별시 영등포구 국제금융로 10 L2층 일부호,37.5250584,126.9259369,891013,1,0000000704
올페이,Password123!,01000000705,상화뽕나무쟁이 선릉3호점,KOREAN,025589279,"서울 강남구 역삼로65길 33, 지하1층 (대치동)",37.50335502,127.0519306,891013,1,0000000705
올페이,Password123!,01000000706,새성진 마포지점,KOREAN,027033366,서울 마포구 도화길 47-1 (도화동),37.54193265,126.9507627,891013,1,0000000706
올페이,Password123!,01000000707,새판,KOREAN,028783830,서울특별시 관악구 신원로 35 3층,37.48231528,126.9290233,891013,1,0000000707
올페이,Password123!,01000000708,샌디비치,BAKERY,0231443663,서울특별시 마포구 잔다리로 42 (서교동),37.55215503,126.9192284,891013,1,0000000708
올페이,Password123!,01000000709,샤브마이,KOREAN,025575064,"서울 강남구 테헤란로78길 14-9 (대치동,지층)",37.50498211,127.0548447,891013,1,0000000709
올페이,Password123!,01000000710,샹하이몽지점,CHINESE,0220412802,"서울 서초구 강남대로107길 5, 1층 (잠원동, 크레신빌딩)",37.51788535,127.0182406,891013,1,0000000710
올페이,Password123!,01000000711,서궁,CHINESE,027807548,"서울특별시 영등포구 국제금융로 86 지층 비144호, 비145호",37.52021271,126.9317967,891013,1,0000000711
올페이,Password123!,01000000712,서두산딤섬만두,GENERAL,024224588,서울특별시 송파구 올림픽로32길 18-23 2층,37.51385227,127.108167,891013,1,0000000712
올페이,Password123!,01000000713,서석대,KOREAN,025840990,"서울 서초구 서초대로 346, 102호 (서초동, 동아빌라트)",37.49509617,127.019432,891013,1,0000000713
올페이,Password123!,01000000714,서우아이앤비-롯데리아동묘역점,FASTFOOD,027647333,서울 종로구 종로 336 주 서우아이앤비 (창신동),37.57247104,127.0150634,891013,1,0000000714
올페이,Password123!,01000000715,서울마리나리조트,WESTERN,0237808411,서울특별시 영등포구 여의서로 160 1층,37.53480781,126.9115853,891013,1,0000000715
올페이,Password123!,01000000716,서울미트클럽 영동미락,KOREAN,0200000000,"서울특별시 강남구 언주로148길 8 지상 2,3,4층(논현동)",37.52031581,127.0353371,891013,1,0000000716
올페이,Password123!,01000000717,서울편백찜광장점,KOREAN,024562096,서울특별시 광진구 광장로 83 1층 102호 (광장동),37.54805441,127.1062885,891013,1,0000000717
올페이,Password123!,01000000718,서울한성식품,KOREAN,029569929,서울 도봉구 도봉산4가길 14-3 (도봉동),37.68833237,127.041295,891013,1,0000000718
올페이,Password123!,01000000719,선 스쿨푸드 강동딜리버리점,GENERAL,0264055678,서울특별시 강동구 구천면로 494 1층,37.54900688,127.1530746,891013,1,0000000719
올페이,Password123!,01000000720,선경솔루션,GENERAL,0200000000,서울특별시 강남구 학동로 117 1층,37.51206941,127.023662,891013,1,0000000720
올페이,Password123!,01000000721,선농살림,GENERAL,025663646,서울특별시 강남구 도곡로 429 지하2~3층,37.49803545,127.0571972,891013,1,0000000721
올페이,Password123!,01000000722,선호에프엔비(속초 코다리냉면 타임스퀘어점),KOREAN,0226333929,"서울특별시 영등포구 영중로 15 지하1층 147호(영등포동4가,타임스퀘어점)",37.51719571,126.9036461,891013,1,0000000722
올페이,Password123!,01000000723,선호에프엔비-속초코다리냉면,KOREAN,025680716,서울특별시 강남구 논현로79길 59 지하 1층,37.49611526,127.0342661,891013,1,0000000723
올페이,Password123!,01000000724,설아래,WESTERN,029668270,서울특별시 동대문구 회기로23길 61 1층,37.59261788,127.0558855,891013,1,0000000724
올페이,Password123!,01000000725,성광에프앤비 어흥식당 왕십리점,WESTERN,0222818849,서울특별시 성동구 왕십리광장로 17 4층 B-05호,37.56146769,127.0383445,891013,1,0000000725
올페이,Password123!,01000000726,성광유니텍 원가드갤러리,GENERAL,0262047398,"서울 강남구 언주로129길 17 , 1층 (논현동)",37.51392644,127.0338304,891013,1,0000000726
올페이,Password123!,01000000727,성도산업개발,KOREAN,0211111111,서울특별시 강남구 압구정로79길 32 B102호,37.52516406,127.0497619,891013,1,0000000727
올페이,Password123!,01000000728,성북동사람들박앤윤,KOREAN,027653450,서울특별시 성북구 대사관로 40 (성북동),37.59587767,126.9886322,891013,1,0000000728
올페이,Password123!,01000000729,성태 미진일식,JAPANESE,023244848,"서울 마포구 월드컵북로2길 37, 1층 (동교동)",37.5568993,126.9226187,891013,1,0000000729
올페이,Password123!,01000000730,세라젬웰파크 청량리점,GENERAL,07041487772,"서울특별시 동대문구 고산자로32길 78 판매시설동 지하1층 비151호~163호, 비167~169호",37.57741557,127.0435964,891013,1,0000000730
올페이,Password123!,01000000731,세렌앤제이슨,KOREAN,025583310,"서울특별시 강남구 남부순환로 2913 지하1층 B101호(대치동,동하빌딩)",37.49274924,127.0585298,891013,1,0000000731
올페이,Password123!,01000000732,세병관,KOREAN,025999506,서울특별시 서초구 법원로2길 15 101-1호,37.49416176,127.0123966,891013,1,0000000732
올페이,Password123!,01000000733,세부유통,WESTERN,027985211,"서울 용산구 한강대로 259, 3층 (갈월동, 에이트리움고려빌딩)",37.54161051,126.9724121,891013,1,0000000733
올페이,Password123!,01000000734,세세에프앤비서초지점,KOREAN,025872591,"서울 서초구 서초대로 269, 1층 (서초동, 부림빌딩)",37.49328688,127.0112186,891013,1,0000000734
올페이,Password123!,01000000735,세원외식산업 산채향,KOREAN,029307488,"서울 노원구 노해로77길 22, 2층 (상계동)",37.65521169,127.0593492,891013,1,0000000735
올페이,Password123!,01000000736,소과당,GENERAL,0200000000,서울특별시 마포구 와우산로23길 48 2층 3층,37.55491923,126.9237156,891013,1,0000000736
올페이,Password123!,01000000737,소금집 그로서리 연남,GENERAL,0211111111,서울특별시 마포구 성미산로29안길 18 101호,37.56515938,126.9232148,891013,1,0000000737
올페이,Password123!,01000000738,소금집 마곡지점,GENERAL,023030801,서울특별시 강서구 마곡동로 61 110호,37.56063139,126.8331612,891013,1,0000000738
올페이,Password123!,01000000739,소금집 망원지점,GENERAL,0211111111,서울특별시 마포구 월드컵로19길 14 2층,37.55682404,126.9082359,891013,1,0000000739
올페이,Password123!,01000000740,소금집 안국지점,GENERAL,023030801,서울특별시 종로구 북촌로4길 19 103호,37.57946429,126.9862379,891013,1,0000000740
올페이,Password123!,01000000741,소명생고기,KOREAN,028933233,"서울 금천구 시흥대로 264, 지상 1-4층 (시흥동)",37.45721781,126.8999443,891013,1,0000000741
올페이,Password123!,01000000742,솔라벨 스트릿츄러스 광운대점,GENERAL,0262630303,서울특별시 노원구 광운로 21 동해예술회관 1층,37.61976039,127.0574861,891013,1,0000000742
올페이,Password123!,01000000743,솔트푸드,GENERAL,0200000000,"서울특별시 금천구 가산디지털1로 146 2층 203,204호",37.4787031,126.8831488,891013,1,0000000743
올페이,Password123!,01000000744,솟대촌 강강술래 당산점,KOREAN,0226779233,서울특별시 영등포구 선유로 251 양평동4가,37.53517361,126.8967861,891013,1,0000000744
올페이,Password123!,01000000745,송원마포갈비,KOREAN,0226782978,서울특별시 영등포구 도림로147길 2-1 1층,37.51668895,126.8892113,891013,1,0000000745
올페이,Password123!,01000000746,송파아구,KOREAN,024030327,"서울 송파구 오금로44길 50-22, 1층 (가락동)",37.49483159,127.131507,891013,1,0000000746
올페이,Password123!,01000000747,수라선,KOREAN,0215779588,서울특별시 강남구 언주로 517 신라스테이호텔1층,37.50488755,127.0413161,891013,1,0000000747
올페이,Password123!,01000000748,수레갈비,KOREAN,0211111111,서울특별시 마포구 매봉산로2길 19-6 1층,37.57833241,126.8953422,891013,1,0000000748
올페이,Password123!,01000000749,수렴에프앤비,KOREAN,021235678,서울특별시 용산구 이촌로 264 상가동 지층 14호,37.51901886,126.9761664,891013,1,0000000749
올페이,Password123!,01000000750,수향푸드,KOREAN,0211111111,서울특별시 송파구 석촌호수로 210 지하1층주방22호,37.50657264,127.1003417,891013,1,0000000750
올페이,Password123!,01000000751,순살로31 마곡나루역점,KOREAN,0234668400,"서울 강서구 마곡중앙5로 6, 1층 131호 (마곡동, 마곡나루역보타닉푸르지오시티)",37.56731408,126.8275549,891013,1,0000000751
올페이,Password123!,01000000752,쉐어드닷 낙원꽃분식,GENERAL,0200000000,서울특별시 종로구 삼일대로26길 17-1 1층(낙원동),37.57341489,126.9890402,891013,1,0000000752
올페이,Password123!,01000000753,슈츄안코리아,CHINESE,0200000000,서울특별시 마포구 어울마당로 59 2층,37.5503855,126.9209416,891013,1,0000000753
올페이,Password123!,01000000754,스몰보트,JAPANESE,0211111111,서울특별시 성동구 왕십리로4길 10-3 1층,37.54576564,127.0459763,891013,1,0000000754
올페이,Password123!,01000000755,스시로한국 발산점,JAPANESE,0222787715,서울특별시 강서구 공항대로 282 2층,37.55808302,126.8386895,891013,1,0000000755
